[
  {
    "commodity_id":3787,
    "commodity_text":"wine",
    "location_id":84433,
    "location_text":"Cartes",
    "location_lat":43.32596,
    "location_lon":-4.06893,
    "page_id":392855,
    "document_id":2847,
    "pub_year":1622,
    "collection_id":29
  },
  {
    "commodity_id":3755,
    "commodity_text":"hay",
    "location_id":84433,
    "location_text":"Cartes",
    "location_lat":43.32596,
    "location_lon":-4.06893,
    "page_id":392855,
    "document_id":2847,
    "pub_year":1622,
    "collection_id":29
  },
  {
    "commodity_id":3903,
    "commodity_text":"guns",
    "location_id":84443,
    "location_text":"Leopolis",
    "location_lat":49.83826,
    "location_lon":24.02324,
    "page_id":392861,
    "document_id":2847,
    "pub_year":1622,
    "collection_id":29
  },
  {
    "commodity_id":3787,
    "commodity_text":"wine",
    "location_id":84433,
    "location_text":"Cartes",
    "location_lat":43.32596,
    "location_lon":-4.06893,
    "page_id":392855,
    "document_id":2847,
    "pub_year":1622,
    "collection_id":29
  },
  {
    "commodity_id":3755,
    "commodity_text":"hay",
    "location_id":84433,
    "location_text":"Cartes",
    "location_lat":43.32596,
    "location_lon":-4.06893,
    "page_id":392855,
    "document_id":2847,
    "pub_year":1622,
    "collection_id":29
  },
  {
    "commodity_id":3880,
    "commodity_text":"shot",
    "location_id":64761,
    "location_text":"Europe",
    "location_lat":48.69096,
    "location_lon":9.14062,
    "page_id":392852,
    "document_id":2847,
    "pub_year":1622,
    "collection_id":29
  },
  {
    "commodity_id":3687,
    "commodity_text":"meat",
    "location_id":84434,
    "location_text":"Corne",
    "location_lat":47.4709,
    "location_lon":-0.34992,
    "page_id":392856,
    "document_id":2847,
    "pub_year":1622,
    "collection_id":29
  },
  {
    "commodity_id":3787,
    "commodity_text":"wine",
    "location_id":84434,
    "location_text":"Corne",
    "location_lat":47.4709,
    "location_lon":-0.34992,
    "page_id":392856,
    "document_id":2847,
    "pub_year":1622,
    "collection_id":29
  },
  {
    "commodity_id":3666,
    "commodity_text":"honey",
    "location_id":84434,
    "location_text":"Corne",
    "location_lat":47.4709,
    "location_lon":-0.34992,
    "page_id":392856,
    "document_id":2847,
    "pub_year":1622,
    "collection_id":29
  },
  {
    "commodity_id":3636,
    "commodity_text":"cattle",
    "location_id":84434,
    "location_text":"Corne",
    "location_lat":47.4709,
    "location_lon":-0.34992,
    "page_id":392856,
    "document_id":2847,
    "pub_year":1622,
    "collection_id":29
  },
  {
    "commodity_id":3797,
    "commodity_text":"bread",
    "location_id":84423,
    "location_text":"Sunne",
    "location_lat":59.83764,
    "location_lon":13.14302,
    "page_id":392858,
    "document_id":2847,
    "pub_year":1622,
    "collection_id":29
  },
  {
    "commodity_id":3690,
    "commodity_text":"fish",
    "location_id":66890,
    "location_text":"City Of London",
    "location_lat":51.50853,
    "location_lon":-0.12574,
    "page_id":12315421,
    "document_id":133596,
    "pub_year":1623,
    "collection_id":34
  },
  {
    "commodity_id":3664,
    "commodity_text":"timber",
    "location_id":66890,
    "location_text":"City Of London",
    "location_lat":51.50853,
    "location_lon":-0.12574,
    "page_id":12315421,
    "document_id":133596,
    "pub_year":1623,
    "collection_id":34
  },
  {
    "commodity_id":3690,
    "commodity_text":"fish",
    "location_id":510750,
    "location_text":"Ocher",
    "location_lat":57.89035,
    "location_lon":54.7202,
    "page_id":12315458,
    "document_id":133596,
    "pub_year":1623,
    "collection_id":34
  },
  {
    "commodity_id":3629,
    "commodity_text":"wood",
    "location_id":510750,
    "location_text":"Ocher",
    "location_lat":57.89035,
    "location_lon":54.7202,
    "page_id":12315458,
    "document_id":133596,
    "pub_year":1623,
    "collection_id":34
  },
  {
    "commodity_id":3638,
    "commodity_text":"art",
    "location_id":74692,
    "location_text":"Roi",
    "location_lat":16.0567,
    "location_lon":103.65309,
    "page_id":12315472,
    "document_id":133596,
    "pub_year":1623,
    "collection_id":34
  },
  {
    "commodity_id":3638,
    "commodity_text":"art",
    "location_id":84434,
    "location_text":"Corne",
    "location_lat":47.4709,
    "location_lon":-0.34992,
    "page_id":12315472,
    "document_id":133596,
    "pub_year":1623,
    "collection_id":34
  },
  {
    "commodity_id":3690,
    "commodity_text":"fish",
    "location_id":64765,
    "location_text":"France",
    "location_lat":46,
    "location_lon":2,
    "page_id":12315405,
    "document_id":133596,
    "pub_year":1623,
    "collection_id":34
  },
  {
    "commodity_id":3763,
    "commodity_text":"gall",
    "location_id":64765,
    "location_text":"France",
    "location_lat":46,
    "location_lon":2,
    "page_id":12315460,
    "document_id":133596,
    "pub_year":1623,
    "collection_id":34
  },
  {
    "commodity_id":3790,
    "commodity_text":"tea",
    "location_id":66711,
    "location_text":"Mes",
    "location_lat":3.58333,
    "location_lon":98.66667,
    "page_id":12315412,
    "document_id":133596,
    "pub_year":1623,
    "collection_id":34
  },
  {
    "commodity_id":3690,
    "commodity_text":"fish",
    "location_id":64765,
    "location_text":"France",
    "location_lat":46,
    "location_lon":2,
    "page_id":12315424,
    "document_id":133596,
    "pub_year":1623,
    "collection_id":34
  },
  {
    "commodity_id":3676,
    "commodity_text":"tar",
    "location_id":64742,
    "location_text":"England",
    "location_lat":52.16045,
    "location_lon":-0.70312,
    "page_id":12315439,
    "document_id":133596,
    "pub_year":1623,
    "collection_id":34
  },
  {
    "commodity_id":3629,
    "commodity_text":"wood",
    "location_id":64765,
    "location_text":"France",
    "location_lat":46,
    "location_lon":2,
    "page_id":12315459,
    "document_id":133596,
    "pub_year":1623,
    "collection_id":34
  },
  {
    "commodity_id":3833,
    "commodity_text":"dog",
    "location_id":182538,
    "location_text":"Affi",
    "location_lat":45.55439,
    "location_lon":10.77738,
    "page_id":12315462,
    "document_id":133596,
    "pub_year":1623,
    "collection_id":34
  },
  {
    "commodity_id":3755,
    "commodity_text":"hay",
    "location_id":124965,
    "location_text":"Wer",
    "location_lat":27.0186,
    "location_lon":77.17636,
    "page_id":12315467,
    "document_id":133596,
    "pub_year":1623,
    "collection_id":34
  },
  {
    "commodity_id":3763,
    "commodity_text":"gall",
    "location_id":65932,
    "location_text":"Norway",
    "location_lat":62,
    "location_lon":10,
    "page_id":12315399,
    "document_id":133596,
    "pub_year":1623,
    "collection_id":34
  },
  {
    "commodity_id":3796,
    "commodity_text":"goats",
    "location_id":76915,
    "location_text":"Harbor",
    "location_lat":42.05317,
    "location_lon":-124.26759,
    "page_id":12315400,
    "document_id":133596,
    "pub_year":1623,
    "collection_id":34
  },
  {
    "commodity_id":3629,
    "commodity_text":"wood",
    "location_id":64734,
    "location_text":"Mexico",
    "location_lat":23,
    "location_lon":-102,
    "page_id":12315408,
    "document_id":133596,
    "pub_year":1623,
    "collection_id":34
  },
  {
    "commodity_id":3690,
    "commodity_text":"fish",
    "location_id":64734,
    "location_text":"Mexico",
    "location_lat":23,
    "location_lon":-102,
    "page_id":12315408,
    "document_id":133596,
    "pub_year":1623,
    "collection_id":34
  },
  {
    "commodity_id":3690,
    "commodity_text":"fish",
    "location_id":64733,
    "location_text":"Spain",
    "location_lat":40,
    "location_lon":-4,
    "page_id":12315408,
    "document_id":133596,
    "pub_year":1623,
    "collection_id":34
  },
  {
    "commodity_id":3690,
    "commodity_text":"fish",
    "location_id":64742,
    "location_text":"England",
    "location_lat":52.16045,
    "location_lon":-0.70312,
    "page_id":12315420,
    "document_id":133596,
    "pub_year":1623,
    "collection_id":34
  },
  {
    "commodity_id":3690,
    "commodity_text":"fish",
    "location_id":64742,
    "location_text":"England",
    "location_lat":52.16045,
    "location_lon":-0.70312,
    "page_id":12315420,
    "document_id":133596,
    "pub_year":1623,
    "collection_id":34
  },
  {
    "commodity_id":3690,
    "commodity_text":"fish",
    "location_id":64742,
    "location_text":"England",
    "location_lat":52.16045,
    "location_lon":-0.70312,
    "page_id":12315420,
    "document_id":133596,
    "pub_year":1623,
    "collection_id":34
  },
  {
    "commodity_id":3690,
    "commodity_text":"fish",
    "location_id":64765,
    "location_text":"France",
    "location_lat":46,
    "location_lon":2,
    "page_id":12315421,
    "document_id":133596,
    "pub_year":1623,
    "collection_id":34
  },
  {
    "commodity_id":3740,
    "commodity_text":"salt",
    "location_id":64765,
    "location_text":"France",
    "location_lat":46,
    "location_lon":2,
    "page_id":12315421,
    "document_id":133596,
    "pub_year":1623,
    "collection_id":34
  },
  {
    "commodity_id":3691,
    "commodity_text":"ice",
    "location_id":76126,
    "location_text":"Lan",
    "location_lat":42.73254,
    "location_lon":-84.55553,
    "page_id":12315432,
    "document_id":133596,
    "pub_year":1623,
    "collection_id":34
  },
  {
    "commodity_id":3656,
    "commodity_text":"woods",
    "location_id":76126,
    "location_text":"Lan",
    "location_lat":42.73254,
    "location_lon":-84.55553,
    "page_id":12315432,
    "document_id":133596,
    "pub_year":1623,
    "collection_id":34
  },
  {
    "commodity_id":3656,
    "commodity_text":"woods",
    "location_id":76126,
    "location_text":"Lan",
    "location_lat":42.73254,
    "location_lon":-84.55553,
    "page_id":12315432,
    "document_id":133596,
    "pub_year":1623,
    "collection_id":34
  },
  {
    "commodity_id":3638,
    "commodity_text":"art",
    "location_id":64742,
    "location_text":"England",
    "location_lat":52.16045,
    "location_lon":-0.70312,
    "page_id":12315464,
    "document_id":133596,
    "pub_year":1623,
    "collection_id":34
  },
  {
    "commodity_id":3638,
    "commodity_text":"art",
    "location_id":64742,
    "location_text":"England",
    "location_lat":52.16045,
    "location_lon":-0.70312,
    "page_id":12315464,
    "document_id":133596,
    "pub_year":1623,
    "collection_id":34
  },
  {
    "commodity_id":3759,
    "commodity_text":"paper",
    "location_id":83781,
    "location_text":"Rom",
    "location_lat":41.89474,
    "location_lon":12.4839,
    "page_id":14069401,
    "document_id":184254,
    "pub_year":1626,
    "collection_id":34
  },
  {
    "commodity_id":3681,
    "commodity_text":"ox",
    "location_id":64742,
    "location_text":"England",
    "location_lat":52.16045,
    "location_lon":-0.70312,
    "page_id":14069414,
    "document_id":184254,
    "pub_year":1626,
    "collection_id":34
  },
  {
    "commodity_id":3639,
    "commodity_text":"bear",
    "location_id":73323,
    "location_text":"Lyon",
    "location_lat":45.74846,
    "location_lon":4.84671,
    "page_id":14069424,
    "document_id":184254,
    "pub_year":1626,
    "collection_id":34
  },
  {
    "commodity_id":3931,
    "commodity_text":"hare",
    "location_id":73323,
    "location_text":"Lyon",
    "location_lat":45.74846,
    "location_lon":4.84671,
    "page_id":14069424,
    "document_id":184254,
    "pub_year":1626,
    "collection_id":34
  },
  {
    "commodity_id":3691,
    "commodity_text":"ice",
    "location_id":74275,
    "location_text":"Fra",
    "location_lat":50.11552,
    "location_lon":8.68417,
    "page_id":14069426,
    "document_id":184254,
    "pub_year":1626,
    "collection_id":34
  },
  {
    "commodity_id":3780,
    "commodity_text":"beams",
    "location_id":83930,
    "location_text":"Cha",
    "location_lat":35.04563,
    "location_lon":-85.30968,
    "page_id":14069437,
    "document_id":184254,
    "pub_year":1626,
    "collection_id":34
  },
  {
    "commodity_id":3681,
    "commodity_text":"ox",
    "location_id":285417,
    "location_text":"Co London",
    "location_lat":51.50853,
    "location_lon":-0.12574,
    "page_id":14069414,
    "document_id":184254,
    "pub_year":1626,
    "collection_id":34
  },
  {
    "commodity_id":3616,
    "commodity_text":"food",
    "location_id":1260976,
    "location_text":"Cires",
    "location_lat":49.27242,
    "location_lon":2.3584,
    "page_id":14069425,
    "document_id":184254,
    "pub_year":1626,
    "collection_id":34
  },
  {
    "commodity_id":3691,
    "commodity_text":"ice",
    "location_id":169637,
    "location_text":"Ons",
    "location_lat":49.41631,
    "location_lon":1.92302,
    "page_id":14069426,
    "document_id":184254,
    "pub_year":1626,
    "collection_id":34
  },
  {
    "commodity_id":3691,
    "commodity_text":"ice",
    "location_id":64842,
    "location_text":"Rome",
    "location_lat":41.89474,
    "location_lon":12.4839,
    "page_id":14069426,
    "document_id":184254,
    "pub_year":1626,
    "collection_id":34
  },
  {
    "commodity_id":3968,
    "commodity_text":"china",
    "location_id":64742,
    "location_text":"England",
    "location_lat":52.16045,
    "location_lon":-0.70312,
    "page_id":14069435,
    "document_id":184254,
    "pub_year":1626,
    "collection_id":34
  },
  {
    "commodity_id":3780,
    "commodity_text":"beams",
    "location_id":84438,
    "location_text":"Loue",
    "location_lat":47.99575,
    "location_lon":-0.1545,
    "page_id":14069437,
    "document_id":184254,
    "pub_year":1626,
    "collection_id":34
  },
  {
    "commodity_id":3619,
    "commodity_text":"oil",
    "location_id":138483,
    "location_text":"Fou",
    "location_lat":-1.21544,
    "location_lon":10.58378,
    "page_id":14069440,
    "document_id":184254,
    "pub_year":1626,
    "collection_id":34
  },
  {
    "commodity_id":3662,
    "commodity_text":"tobacco",
    "location_id":64733,
    "location_text":"Spain",
    "location_lat":40,
    "location_lon":-4,
    "page_id":14069454,
    "document_id":184254,
    "pub_year":1626,
    "collection_id":34
  },
  {
    "commodity_id":3638,
    "commodity_text":"art",
    "location_id":83732,
    "location_text":"Saint Andrew",
    "location_lat":18.06667,
    "location_lon":-76.75,
    "page_id":14069465,
    "document_id":184254,
    "pub_year":1626,
    "collection_id":34
  },
  {
    "commodity_id":3787,
    "commodity_text":"wine",
    "location_id":127416,
    "location_text":"Buis",
    "location_lat":44.27373,
    "location_lon":5.2722,
    "page_id":14069466,
    "document_id":184254,
    "pub_year":1626,
    "collection_id":34
  },
  {
    "commodity_id":3740,
    "commodity_text":"salt",
    "location_id":64765,
    "location_text":"France",
    "location_lat":46,
    "location_lon":2,
    "page_id":14069498,
    "document_id":184254,
    "pub_year":1626,
    "collection_id":34
  },
  {
    "commodity_id":3740,
    "commodity_text":"salt",
    "location_id":1641925,
    "location_text":"Chilon",
    "location_lat":17.23333,
    "location_lon":-92.41667,
    "page_id":14069499,
    "document_id":184254,
    "pub_year":1626,
    "collection_id":34
  },
  {
    "commodity_id":3740,
    "commodity_text":"salt",
    "location_id":64815,
    "location_text":"London",
    "location_lat":51.50853,
    "location_lon":-0.12574,
    "page_id":14069499,
    "document_id":184254,
    "pub_year":1626,
    "collection_id":34
  },
  {
    "commodity_id":3740,
    "commodity_text":"salt",
    "location_id":1641925,
    "location_text":"Chilon",
    "location_lat":17.23333,
    "location_lon":-92.41667,
    "page_id":14069499,
    "document_id":184254,
    "pub_year":1626,
    "collection_id":34
  },
  {
    "commodity_id":3740,
    "commodity_text":"salt",
    "location_id":64815,
    "location_text":"London",
    "location_lat":51.50853,
    "location_lon":-0.12574,
    "page_id":14069499,
    "document_id":184254,
    "pub_year":1626,
    "collection_id":34
  },
  {
    "commodity_id":3681,
    "commodity_text":"ox",
    "location_id":113779,
    "location_text":"Becket",
    "location_lat":42.33203,
    "location_lon":-73.08288,
    "page_id":14069414,
    "document_id":184254,
    "pub_year":1626,
    "collection_id":34
  },
  {
    "commodity_id":3639,
    "commodity_text":"bear",
    "location_id":440551,
    "location_text":"Puls",
    "location_lat":54.08333,
    "location_lon":9.51667,
    "page_id":14069424,
    "document_id":184254,
    "pub_year":1626,
    "collection_id":34
  },
  {
    "commodity_id":3931,
    "commodity_text":"hare",
    "location_id":440551,
    "location_text":"Puls",
    "location_lat":54.08333,
    "location_lon":9.51667,
    "page_id":14069424,
    "document_id":184254,
    "pub_year":1626,
    "collection_id":34
  },
  {
    "commodity_id":3740,
    "commodity_text":"salt",
    "location_id":90821,
    "location_text":"Saint Paul",
    "location_lat":17.03333,
    "location_lon":-61.76667,
    "page_id":14069433,
    "document_id":184254,
    "pub_year":1626,
    "collection_id":34
  },
  {
    "commodity_id":3672,
    "commodity_text":"gold",
    "location_id":75678,
    "location_text":"Prague",
    "location_lat":50.08804,
    "location_lon":14.42076,
    "page_id":14069457,
    "document_id":184254,
    "pub_year":1626,
    "collection_id":34
  },
  {
    "commodity_id":3672,
    "commodity_text":"gold",
    "location_id":64765,
    "location_text":"France",
    "location_lat":46,
    "location_lon":2,
    "page_id":14069457,
    "document_id":184254,
    "pub_year":1626,
    "collection_id":34
  },
  {
    "commodity_id":3638,
    "commodity_text":"art",
    "location_id":66433,
    "location_text":"Co",
    "location_lat":39.00027,
    "location_lon":-105.50083,
    "page_id":14069465,
    "document_id":184254,
    "pub_year":1626,
    "collection_id":34
  },
  {
    "commodity_id":3691,
    "commodity_text":"ice",
    "location_id":87103,
    "location_text":"Coa",
    "location_lat":27.33333,
    "location_lon":-102,
    "page_id":14069481,
    "document_id":184254,
    "pub_year":1626,
    "collection_id":34
  },
  {
    "commodity_id":3638,
    "commodity_text":"art",
    "location_id":88053,
    "location_text":"Id",
    "location_lat":44.5002,
    "location_lon":-114.25118,
    "page_id":14069465,
    "document_id":184254,
    "pub_year":1626,
    "collection_id":34
  },
  {
    "commodity_id":3797,
    "commodity_text":"bread",
    "location_id":378822,
    "location_text":"Barly",
    "location_lat":50.25035,
    "location_lon":2.54621,
    "page_id":14069476,
    "document_id":184254,
    "pub_year":1626,
    "collection_id":34
  },
  {
    "commodity_id":3690,
    "commodity_text":"fish",
    "location_id":65142,
    "location_text":"Westminster",
    "location_lat":51.5,
    "location_lon":-0.16667,
    "page_id":14219464,
    "document_id":184871,
    "pub_year":1657,
    "collection_id":40
  },
  {
    "commodity_id":3748,
    "commodity_text":"pear",
    "location_id":64815,
    "location_text":"London",
    "location_lat":51.50853,
    "location_lon":-0.12574,
    "page_id":14219467,
    "document_id":184871,
    "pub_year":1657,
    "collection_id":40
  },
  {
    "commodity_id":3820,
    "commodity_text":"rose",
    "location_id":64815,
    "location_text":"London",
    "location_lat":51.50853,
    "location_lon":-0.12574,
    "page_id":393392,
    "document_id":2858,
    "pub_year":1672,
    "collection_id":29
  },
  {
    "commodity_id":3690,
    "commodity_text":"fish",
    "location_id":65218,
    "location_text":"United Provinces",
    "location_lat":27.25,
    "location_lon":80.75,
    "page_id":393397,
    "document_id":2858,
    "pub_year":1672,
    "collection_id":29
  },
  {
    "commodity_id":4018,
    "commodity_text":"mace",
    "location_id":66169,
    "location_text":"Banda",
    "location_lat":25.47534,
    "location_lon":80.3358,
    "page_id":393402,
    "document_id":2858,
    "pub_year":1672,
    "collection_id":29
  },
  {
    "commodity_id":3657,
    "commodity_text":"cinnamon",
    "location_id":66169,
    "location_text":"Banda",
    "location_lat":25.47534,
    "location_lon":80.3358,
    "page_id":393402,
    "document_id":2858,
    "pub_year":1672,
    "collection_id":29
  },
  {
    "commodity_id":3690,
    "commodity_text":"fish",
    "location_id":64742,
    "location_text":"England",
    "location_lat":52.16045,
    "location_lon":-0.70312,
    "page_id":393408,
    "document_id":2858,
    "pub_year":1672,
    "collection_id":29
  },
  {
    "commodity_id":3690,
    "commodity_text":"fish",
    "location_id":76757,
    "location_text":"Antwerp",
    "location_lat":51.21989,
    "location_lon":4.40346,
    "page_id":393397,
    "document_id":2858,
    "pub_year":1672,
    "collection_id":29
  },
  {
    "commodity_id":3825,
    "commodity_text":"ale",
    "location_id":64801,
    "location_text":"Ireland",
    "location_lat":53,
    "location_lon":-8,
    "page_id":393399,
    "document_id":2858,
    "pub_year":1672,
    "collection_id":29
  },
  {
    "commodity_id":3825,
    "commodity_text":"ale",
    "location_id":66646,
    "location_text":"Cornwall",
    "location_lat":45.01809,
    "location_lon":-74.72815,
    "page_id":393399,
    "document_id":2858,
    "pub_year":1672,
    "collection_id":29
  },
  {
    "commodity_id":3690,
    "commodity_text":"fish",
    "location_id":65115,
    "location_text":"Great Britain",
    "location_lat":54.75844,
    "location_lon":-2.69531,
    "page_id":393401,
    "document_id":2858,
    "pub_year":1672,
    "collection_id":29
  },
  {
    "commodity_id":4018,
    "commodity_text":"mace",
    "location_id":84665,
    "location_text":"Maner",
    "location_lat":25.64728,
    "location_lon":84.87418,
    "page_id":393402,
    "document_id":2858,
    "pub_year":1672,
    "collection_id":29
  },
  {
    "commodity_id":3657,
    "commodity_text":"cinnamon",
    "location_id":84665,
    "location_text":"Maner",
    "location_lat":25.64728,
    "location_lon":84.87418,
    "page_id":393402,
    "document_id":2858,
    "pub_year":1672,
    "collection_id":29
  },
  {
    "commodity_id":3690,
    "commodity_text":"fish",
    "location_id":64801,
    "location_text":"Ireland",
    "location_lat":53,
    "location_lon":-8,
    "page_id":393408,
    "document_id":2858,
    "pub_year":1672,
    "collection_id":29
  },
  {
    "commodity_id":3649,
    "commodity_text":"blood",
    "location_id":64761,
    "location_text":"Europe",
    "location_lat":48.69096,
    "location_lon":9.14062,
    "page_id":393411,
    "document_id":2858,
    "pub_year":1672,
    "collection_id":29
  },
  {
    "commodity_id":3619,
    "commodity_text":"oil",
    "location_id":64761,
    "location_text":"Europe",
    "location_lat":48.69096,
    "location_lon":9.14062,
    "page_id":393404,
    "document_id":2858,
    "pub_year":1672,
    "collection_id":29
  },
  {
    "commodity_id":3619,
    "commodity_text":"oil",
    "location_id":64816,
    "location_text":"China",
    "location_lat":35,
    "location_lon":105,
    "page_id":393404,
    "document_id":2858,
    "pub_year":1672,
    "collection_id":29
  },
  {
    "commodity_id":3690,
    "commodity_text":"fish",
    "location_id":64742,
    "location_text":"England",
    "location_lat":52.16045,
    "location_lon":-0.70312,
    "page_id":393409,
    "document_id":2858,
    "pub_year":1672,
    "collection_id":29
  },
  {
    "commodity_id":3629,
    "commodity_text":"wood",
    "location_id":95505,
    "location_text":"Manda",
    "location_lat":34.88333,
    "location_lon":136.93333,
    "page_id":410948,
    "document_id":7366,
    "pub_year":1677,
    "collection_id":30
  },
  {
    "commodity_id":3629,
    "commodity_text":"wood",
    "location_id":95505,
    "location_text":"Manda",
    "location_lat":34.88333,
    "location_lon":136.93333,
    "page_id":410951,
    "document_id":7369,
    "pub_year":1680,
    "collection_id":30
  },
  {
    "commodity_id":3678,
    "commodity_text":"cod",
    "location_id":64765,
    "location_text":"France",
    "location_lat":46,
    "location_lon":2,
    "page_id":14069304,
    "document_id":184252,
    "pub_year":1686,
    "collection_id":40
  },
  {
    "commodity_id":3740,
    "commodity_text":"salt",
    "location_id":64970,
    "location_text":"Hin",
    "location_lat":40.74103,
    "location_lon":44.86362,
    "page_id":14069306,
    "document_id":184252,
    "pub_year":1686,
    "collection_id":40
  },
  {
    "commodity_id":3740,
    "commodity_text":"salt",
    "location_id":65115,
    "location_text":"Great Britain",
    "location_lat":54.75844,
    "location_lon":-2.69531,
    "page_id":14069306,
    "document_id":184252,
    "pub_year":1686,
    "collection_id":40
  },
  {
    "commodity_id":3690,
    "commodity_text":"fish",
    "location_id":64745,
    "location_text":"Britain",
    "location_lat":54.75844,
    "location_lon":-2.69531,
    "page_id":14069305,
    "document_id":184252,
    "pub_year":1686,
    "collection_id":40
  },
  {
    "commodity_id":3690,
    "commodity_text":"fish",
    "location_id":64745,
    "location_text":"Britain",
    "location_lat":54.75844,
    "location_lon":-2.69531,
    "page_id":14069305,
    "document_id":184252,
    "pub_year":1686,
    "collection_id":40
  },
  {
    "commodity_id":3678,
    "commodity_text":"cod",
    "location_id":64801,
    "location_text":"Ireland",
    "location_lat":53,
    "location_lon":-8,
    "page_id":14069304,
    "document_id":184252,
    "pub_year":1686,
    "collection_id":40
  },
  {
    "commodity_id":3629,
    "commodity_text":"wood",
    "location_id":95505,
    "location_text":"Manda",
    "location_lat":34.88333,
    "location_lon":136.93333,
    "page_id":410963,
    "document_id":7381,
    "pub_year":1692,
    "collection_id":30
  },
  {
    "commodity_id":3629,
    "commodity_text":"wood",
    "location_id":95506,
    "location_text":"Mcneil",
    "location_lat":33.3479,
    "location_lon":-93.20989,
    "page_id":410963,
    "document_id":7381,
    "pub_year":1692,
    "collection_id":30
  },
  {
    "commodity_id":3754,
    "commodity_text":"plants",
    "location_id":64788,
    "location_text":"America",
    "location_lat":39.76,
    "location_lon":-98.5,
    "page_id":12271726,
    "document_id":133233,
    "pub_year":1697,
    "collection_id":34
  },
  {
    "commodity_id":3754,
    "commodity_text":"plants",
    "location_id":65186,
    "location_text":"Chili",
    "location_lat":-30,
    "location_lon":-71,
    "page_id":12271726,
    "document_id":133233,
    "pub_year":1697,
    "collection_id":34
  },
  {
    "commodity_id":3754,
    "commodity_text":"plants",
    "location_id":65165,
    "location_text":"Peru",
    "location_lat":-10,
    "location_lon":-76,
    "page_id":12271726,
    "document_id":133233,
    "pub_year":1697,
    "collection_id":34
  },
  {
    "commodity_id":3754,
    "commodity_text":"plants",
    "location_id":64734,
    "location_text":"Mexico",
    "location_lat":23,
    "location_lon":-102,
    "page_id":12271726,
    "document_id":133233,
    "pub_year":1697,
    "collection_id":34
  },
  {
    "commodity_id":3754,
    "commodity_text":"plants",
    "location_id":65647,
    "location_text":"East India",
    "location_lat":20,
    "location_lon":77,
    "page_id":12271726,
    "document_id":133233,
    "pub_year":1697,
    "collection_id":34
  },
  {
    "commodity_id":3754,
    "commodity_text":"plants",
    "location_id":69387,
    "location_text":"Cambodia",
    "location_lat":13,
    "location_lon":105,
    "page_id":12271726,
    "document_id":133233,
    "pub_year":1697,
    "collection_id":34
  },
  {
    "commodity_id":3612,
    "commodity_text":"fruits",
    "location_id":64788,
    "location_text":"America",
    "location_lat":39.76,
    "location_lon":-98.5,
    "page_id":12271726,
    "document_id":133233,
    "pub_year":1697,
    "collection_id":34
  },
  {
    "commodity_id":3612,
    "commodity_text":"fruits",
    "location_id":65186,
    "location_text":"Chili",
    "location_lat":-30,
    "location_lon":-71,
    "page_id":12271726,
    "document_id":133233,
    "pub_year":1697,
    "collection_id":34
  },
  {
    "commodity_id":3612,
    "commodity_text":"fruits",
    "location_id":65165,
    "location_text":"Peru",
    "location_lat":-10,
    "location_lon":-76,
    "page_id":12271726,
    "document_id":133233,
    "pub_year":1697,
    "collection_id":34
  },
  {
    "commodity_id":3612,
    "commodity_text":"fruits",
    "location_id":64734,
    "location_text":"Mexico",
    "location_lat":23,
    "location_lon":-102,
    "page_id":12271726,
    "document_id":133233,
    "pub_year":1697,
    "collection_id":34
  },
  {
    "commodity_id":3612,
    "commodity_text":"fruits",
    "location_id":65647,
    "location_text":"East India",
    "location_lat":20,
    "location_lon":77,
    "page_id":12271726,
    "document_id":133233,
    "pub_year":1697,
    "collection_id":34
  },
  {
    "commodity_id":3612,
    "commodity_text":"fruits",
    "location_id":69387,
    "location_text":"Cambodia",
    "location_lat":13,
    "location_lon":105,
    "page_id":12271726,
    "document_id":133233,
    "pub_year":1697,
    "collection_id":34
  },
  {
    "commodity_id":3697,
    "commodity_text":"animals",
    "location_id":64788,
    "location_text":"America",
    "location_lat":39.76,
    "location_lon":-98.5,
    "page_id":12271726,
    "document_id":133233,
    "pub_year":1697,
    "collection_id":34
  },
  {
    "commodity_id":3697,
    "commodity_text":"animals",
    "location_id":65186,
    "location_text":"Chili",
    "location_lat":-30,
    "location_lon":-71,
    "page_id":12271726,
    "document_id":133233,
    "pub_year":1697,
    "collection_id":34
  },
  {
    "commodity_id":3697,
    "commodity_text":"animals",
    "location_id":65165,
    "location_text":"Peru",
    "location_lat":-10,
    "location_lon":-76,
    "page_id":12271726,
    "document_id":133233,
    "pub_year":1697,
    "collection_id":34
  },
  {
    "commodity_id":3697,
    "commodity_text":"animals",
    "location_id":64734,
    "location_text":"Mexico",
    "location_lat":23,
    "location_lon":-102,
    "page_id":12271726,
    "document_id":133233,
    "pub_year":1697,
    "collection_id":34
  },
  {
    "commodity_id":3697,
    "commodity_text":"animals",
    "location_id":65647,
    "location_text":"East India",
    "location_lat":20,
    "location_lon":77,
    "page_id":12271726,
    "document_id":133233,
    "pub_year":1697,
    "collection_id":34
  },
  {
    "commodity_id":3697,
    "commodity_text":"animals",
    "location_id":69387,
    "location_text":"Cambodia",
    "location_lat":13,
    "location_lon":105,
    "page_id":12271726,
    "document_id":133233,
    "pub_year":1697,
    "collection_id":34
  },
  {
    "commodity_id":3900,
    "commodity_text":"turtle",
    "location_id":88598,
    "location_text":"Mof",
    "location_lat":-8.6199,
    "location_lon":122.2111,
    "page_id":12271736,
    "document_id":133233,
    "pub_year":1697,
    "collection_id":34
  },
  {
    "commodity_id":3900,
    "commodity_text":"turtle",
    "location_id":88598,
    "location_text":"Mof",
    "location_lat":-8.6199,
    "location_lon":122.2111,
    "page_id":12271736,
    "document_id":133233,
    "pub_year":1697,
    "collection_id":34
  },
  {
    "commodity_id":3903,
    "commodity_text":"guns",
    "location_id":88598,
    "location_text":"Mof",
    "location_lat":-8.6199,
    "location_lon":122.2111,
    "page_id":12271736,
    "document_id":133233,
    "pub_year":1697,
    "collection_id":34
  },
  {
    "commodity_id":3903,
    "commodity_text":"guns",
    "location_id":70026,
    "location_text":"Nan",
    "location_lat":18.83333,
    "location_lon":100.66667,
    "page_id":12271748,
    "document_id":133233,
    "pub_year":1697,
    "collection_id":34
  },
  {
    "commodity_id":3715,
    "commodity_text":"flower",
    "location_id":74813,
    "location_text":"Som",
    "location_lat":51.08333,
    "location_lon":-3,
    "page_id":12271748,
    "document_id":133233,
    "pub_year":1697,
    "collection_id":34
  },
  {
    "commodity_id":3614,
    "commodity_text":"fruit",
    "location_id":68991,
    "location_text":"Mayo",
    "location_lat":38.88761,
    "location_lon":-76.5119,
    "page_id":12271792,
    "document_id":133233,
    "pub_year":1697,
    "collection_id":34
  },
  {
    "commodity_id":3611,
    "commodity_text":"nuts",
    "location_id":96771,
    "location_text":"Verd",
    "location_lat":45.95667,
    "location_lon":14.30583,
    "page_id":12271793,
    "document_id":133233,
    "pub_year":1697,
    "collection_id":34
  },
  {
    "commodity_id":3796,
    "commodity_text":"goats",
    "location_id":64955,
    "location_text":"Us",
    "location_lat":39.76,
    "location_lon":-98.5,
    "page_id":12271800,
    "document_id":133233,
    "pub_year":1697,
    "collection_id":34
  },
  {
    "commodity_id":3672,
    "commodity_text":"gold",
    "location_id":65787,
    "location_text":"Quito",
    "location_lat":-0.22985,
    "location_lon":-78.52495,
    "page_id":12271833,
    "document_id":133233,
    "pub_year":1697,
    "collection_id":34
  },
  {
    "commodity_id":4075,
    "commodity_text":"swan",
    "location_id":72798,
    "location_text":"Ca",
    "location_lat":37.25022,
    "location_lon":-119.75126,
    "page_id":12271887,
    "document_id":133233,
    "pub_year":1697,
    "collection_id":34
  },
  {
    "commodity_id":3638,
    "commodity_text":"art",
    "location_id":72757,
    "location_text":"Weil",
    "location_lat":48.6227,
    "location_lon":9.06355,
    "page_id":12271898,
    "document_id":133233,
    "pub_year":1697,
    "collection_id":34
  },
  {
    "commodity_id":3656,
    "commodity_text":"woods",
    "location_id":132446,
    "location_text":"Volcan",
    "location_lat":8.76667,
    "location_lon":-82.63333,
    "page_id":12271910,
    "document_id":133233,
    "pub_year":1697,
    "collection_id":34
  },
  {
    "commodity_id":3613,
    "commodity_text":"bark",
    "location_id":72798,
    "location_text":"Ca",
    "location_lat":37.25022,
    "location_lon":-119.75126,
    "page_id":12271916,
    "document_id":133233,
    "pub_year":1697,
    "collection_id":34
  },
  {
    "commodity_id":3613,
    "commodity_text":"bark",
    "location_id":72798,
    "location_text":"Ca",
    "location_lat":37.25022,
    "location_lon":-119.75126,
    "page_id":12271917,
    "document_id":133233,
    "pub_year":1697,
    "collection_id":34
  },
  {
    "commodity_id":3840,
    "commodity_text":"cats",
    "location_id":435623,
    "location_text":"Canoas",
    "location_lat":-29.91778,
    "location_lon":-51.18361,
    "page_id":12271922,
    "document_id":133233,
    "pub_year":1697,
    "collection_id":34
  },
  {
    "commodity_id":4012,
    "commodity_text":"chocolate",
    "location_id":92413,
    "location_text":"Ille",
    "location_lat":42.67069,
    "location_lon":2.62162,
    "page_id":12271926,
    "document_id":133233,
    "pub_year":1697,
    "collection_id":34
  },
  {
    "commodity_id":3903,
    "commodity_text":"guns",
    "location_id":435623,
    "location_text":"Canoas",
    "location_lat":-29.91778,
    "location_lon":-51.18361,
    "page_id":12271929,
    "document_id":133233,
    "pub_year":1697,
    "collection_id":34
  },
  {
    "commodity_id":3620,
    "commodity_text":"trees",
    "location_id":1122282,
    "location_text":"Darien",
    "location_lat":41.74586,
    "location_lon":-88.00339,
    "page_id":12271935,
    "document_id":133233,
    "pub_year":1697,
    "collection_id":34
  },
  {
    "commodity_id":3617,
    "commodity_text":"tree",
    "location_id":1122282,
    "location_text":"Darien",
    "location_lat":41.74586,
    "location_lon":-88.00339,
    "page_id":12271935,
    "document_id":133233,
    "pub_year":1697,
    "collection_id":34
  },
  {
    "commodity_id":3692,
    "commodity_text":"horse",
    "location_id":88053,
    "location_text":"Id",
    "location_lat":44.5002,
    "location_lon":-114.25118,
    "page_id":12271940,
    "document_id":133233,
    "pub_year":1697,
    "collection_id":34
  },
  {
    "commodity_id":3613,
    "commodity_text":"bark",
    "location_id":66293,
    "location_text":"Us.",
    "location_lat":49.1,
    "location_lon":1.96667,
    "page_id":12271944,
    "document_id":133233,
    "pub_year":1697,
    "collection_id":34
  },
  {
    "commodity_id":3620,
    "commodity_text":"trees",
    "location_id":435623,
    "location_text":"Canoas",
    "location_lat":-29.91778,
    "location_lon":-51.18361,
    "page_id":12271944,
    "document_id":133233,
    "pub_year":1697,
    "collection_id":34
  },
  {
    "commodity_id":3693,
    "commodity_text":"horses",
    "location_id":435623,
    "location_text":"Canoas",
    "location_lat":-29.91778,
    "location_lon":-51.18361,
    "page_id":12271944,
    "document_id":133233,
    "pub_year":1697,
    "collection_id":34
  },
  {
    "commodity_id":4072,
    "commodity_text":"onion",
    "location_id":67054,
    "location_text":"Lin",
    "location_lat":53.16667,
    "location_lon":-0.25,
    "page_id":12271948,
    "document_id":133233,
    "pub_year":1697,
    "collection_id":34
  },
  {
    "commodity_id":3690,
    "commodity_text":"fish",
    "location_id":72798,
    "location_text":"Ca",
    "location_lat":37.25022,
    "location_lon":-119.75126,
    "page_id":12271949,
    "document_id":133233,
    "pub_year":1697,
    "collection_id":34
  },
  {
    "commodity_id":3613,
    "commodity_text":"bark",
    "location_id":66522,
    "location_text":"Panama",
    "location_lat":9,
    "location_lon":-80,
    "page_id":12271958,
    "document_id":133233,
    "pub_year":1697,
    "collection_id":34
  },
  {
    "commodity_id":3797,
    "commodity_text":"bread",
    "location_id":85587,
    "location_text":"Ala",
    "location_lat":48.83777,
    "location_lon":10.0933,
    "page_id":12271976,
    "document_id":133233,
    "pub_year":1697,
    "collection_id":34
  },
  {
    "commodity_id":3688,
    "commodity_text":"wheat",
    "location_id":85587,
    "location_text":"Ala",
    "location_lat":48.83777,
    "location_lon":10.0933,
    "page_id":12271976,
    "document_id":133233,
    "pub_year":1697,
    "collection_id":34
  },
  {
    "commodity_id":3662,
    "commodity_text":"tobacco",
    "location_id":143072,
    "location_text":"Mn",
    "location_lat":46.25024,
    "location_lon":-94.25055,
    "page_id":12272000,
    "document_id":133233,
    "pub_year":1697,
    "collection_id":34
  },
  {
    "commodity_id":3793,
    "commodity_text":"seeds",
    "location_id":143072,
    "location_text":"Mn",
    "location_lat":46.25024,
    "location_lon":-94.25055,
    "page_id":12272000,
    "document_id":133233,
    "pub_year":1697,
    "collection_id":34
  },
  {
    "commodity_id":3662,
    "commodity_text":"tobacco",
    "location_id":143072,
    "location_text":"Mn",
    "location_lat":46.25024,
    "location_lon":-94.25055,
    "page_id":12272000,
    "document_id":133233,
    "pub_year":1697,
    "collection_id":34
  },
  {
    "commodity_id":3662,
    "commodity_text":"tobacco",
    "location_id":143072,
    "location_text":"Mn",
    "location_lat":46.25024,
    "location_lon":-94.25055,
    "page_id":12272000,
    "document_id":133233,
    "pub_year":1697,
    "collection_id":34
  },
  {
    "commodity_id":3662,
    "commodity_text":"tobacco",
    "location_id":143072,
    "location_text":"Mn",
    "location_lat":46.25024,
    "location_lon":-94.25055,
    "page_id":12272000,
    "document_id":133233,
    "pub_year":1697,
    "collection_id":34
  },
  {
    "commodity_id":3738,
    "commodity_text":"deer",
    "location_id":90825,
    "location_text":"Savannah",
    "location_lat":32.08354,
    "location_lon":-81.09983,
    "page_id":12272009,
    "document_id":133233,
    "pub_year":1697,
    "collection_id":34
  },
  {
    "commodity_id":3738,
    "commodity_text":"deer",
    "location_id":90825,
    "location_text":"Savannah",
    "location_lat":32.08354,
    "location_lon":-81.09983,
    "page_id":12272012,
    "document_id":133233,
    "pub_year":1697,
    "collection_id":34
  },
  {
    "commodity_id":3731,
    "commodity_text":"beef",
    "location_id":88053,
    "location_text":"Id",
    "location_lat":44.5002,
    "location_lon":-114.25118,
    "page_id":12272027,
    "document_id":133233,
    "pub_year":1697,
    "collection_id":34
  },
  {
    "commodity_id":3738,
    "commodity_text":"deer",
    "location_id":90825,
    "location_text":"Savannah",
    "location_lat":32.08354,
    "location_lon":-81.09983,
    "page_id":12272032,
    "document_id":133233,
    "pub_year":1697,
    "collection_id":34
  },
  {
    "commodity_id":4075,
    "commodity_text":"swan",
    "location_id":297498,
    "location_text":"Canoa",
    "location_lat":19.15,
    "location_lon":-98.08333,
    "page_id":12272033,
    "document_id":133233,
    "pub_year":1697,
    "collection_id":34
  },
  {
    "commodity_id":3638,
    "commodity_text":"art",
    "location_id":84882,
    "location_text":"Mold",
    "location_lat":53.16674,
    "location_lon":-3.14143,
    "page_id":12272044,
    "document_id":133233,
    "pub_year":1697,
    "collection_id":34
  },
  {
    "commodity_id":3644,
    "commodity_text":"ass",
    "location_id":74509,
    "location_text":"Lep",
    "location_lat":-21.53194,
    "location_lon":-42.64306,
    "page_id":12272047,
    "document_id":133233,
    "pub_year":1697,
    "collection_id":34
  },
  {
    "commodity_id":3900,
    "commodity_text":"turtle",
    "location_id":74509,
    "location_text":"Lep",
    "location_lat":-21.53194,
    "location_lon":-42.64306,
    "page_id":12272047,
    "document_id":133233,
    "pub_year":1697,
    "collection_id":34
  },
  {
    "commodity_id":3669,
    "commodity_text":"rice",
    "location_id":65523,
    "location_text":"Malacca",
    "location_lat":2.196,
    "location_lon":102.2405,
    "page_id":12272053,
    "document_id":133233,
    "pub_year":1697,
    "collection_id":34
  },
  {
    "commodity_id":3669,
    "commodity_text":"rice",
    "location_id":64816,
    "location_text":"China",
    "location_lat":35,
    "location_lon":105,
    "page_id":12272055,
    "document_id":133233,
    "pub_year":1697,
    "collection_id":34
  },
  {
    "commodity_id":3638,
    "commodity_text":"art",
    "location_id":87103,
    "location_text":"Coa",
    "location_lat":27.33333,
    "location_lon":-102,
    "page_id":12272070,
    "document_id":133233,
    "pub_year":1697,
    "collection_id":34
  },
  {
    "commodity_id":3617,
    "commodity_text":"tree",
    "location_id":297498,
    "location_text":"Canoa",
    "location_lat":19.15,
    "location_lon":-98.08333,
    "page_id":12272105,
    "document_id":133233,
    "pub_year":1697,
    "collection_id":34
  },
  {
    "commodity_id":3611,
    "commodity_text":"nuts",
    "location_id":65092,
    "location_text":"Sumatra",
    "location_lat":0,
    "location_lon":102,
    "page_id":12272106,
    "document_id":133233,
    "pub_year":1697,
    "collection_id":34
  },
  {
    "commodity_id":3714,
    "commodity_text":"books",
    "location_id":186601,
    "location_text":"Ner",
    "location_lat":56.66637,
    "location_lon":124.63825,
    "page_id":12272113,
    "document_id":133233,
    "pub_year":1697,
    "collection_id":34
  },
  {
    "commodity_id":3714,
    "commodity_text":"books",
    "location_id":72798,
    "location_text":"Ca",
    "location_lat":37.25022,
    "location_lon":-119.75126,
    "page_id":12272113,
    "document_id":133233,
    "pub_year":1697,
    "collection_id":34
  },
  {
    "commodity_id":3714,
    "commodity_text":"books",
    "location_id":297498,
    "location_text":"Canoa",
    "location_lat":19.15,
    "location_lon":-98.08333,
    "page_id":12272113,
    "document_id":133233,
    "pub_year":1697,
    "collection_id":34
  },
  {
    "commodity_id":3714,
    "commodity_text":"books",
    "location_id":186601,
    "location_text":"Ner",
    "location_lat":56.66637,
    "location_lon":124.63825,
    "page_id":12272113,
    "document_id":133233,
    "pub_year":1697,
    "collection_id":34
  },
  {
    "commodity_id":3714,
    "commodity_text":"books",
    "location_id":72798,
    "location_text":"Ca",
    "location_lat":37.25022,
    "location_lon":-119.75126,
    "page_id":12272113,
    "document_id":133233,
    "pub_year":1697,
    "collection_id":34
  },
  {
    "commodity_id":3714,
    "commodity_text":"books",
    "location_id":297498,
    "location_text":"Canoa",
    "location_lat":19.15,
    "location_lon":-98.08333,
    "page_id":12272113,
    "document_id":133233,
    "pub_year":1697,
    "collection_id":34
  },
  {
    "commodity_id":3679,
    "commodity_text":"arms",
    "location_id":297498,
    "location_text":"Canoa",
    "location_lat":19.15,
    "location_lon":-98.08333,
    "page_id":12272114,
    "document_id":133233,
    "pub_year":1697,
    "collection_id":34
  },
  {
    "commodity_id":3757,
    "commodity_text":"lard",
    "location_id":65092,
    "location_text":"Sumatra",
    "location_lat":0,
    "location_lon":102,
    "page_id":12272117,
    "document_id":133233,
    "pub_year":1697,
    "collection_id":34
  },
  {
    "commodity_id":3638,
    "commodity_text":"art",
    "location_id":99333,
    "location_text":"Thel",
    "location_lat":46.11636,
    "location_lon":4.37624,
    "page_id":12272123,
    "document_id":133233,
    "pub_year":1697,
    "collection_id":34
  },
  {
    "commodity_id":3656,
    "commodity_text":"woods",
    "location_id":74821,
    "location_text":"Lan",
    "location_lat":53.83333,
    "location_lon":-2.5,
    "page_id":12272125,
    "document_id":133233,
    "pub_year":1697,
    "collection_id":34
  },
  {
    "commodity_id":3616,
    "commodity_text":"food",
    "location_id":72798,
    "location_text":"Ca",
    "location_lat":37.25022,
    "location_lon":-119.75126,
    "page_id":12272127,
    "document_id":133233,
    "pub_year":1697,
    "collection_id":34
  },
  {
    "commodity_id":3740,
    "commodity_text":"salt",
    "location_id":72798,
    "location_text":"Ca",
    "location_lat":37.25022,
    "location_lon":-119.75126,
    "page_id":12272127,
    "document_id":133233,
    "pub_year":1697,
    "collection_id":34
  },
  {
    "commodity_id":3732,
    "commodity_text":"mutton",
    "location_id":295924,
    "location_text":"Prace",
    "location_lat":48.87704,
    "location_lon":16.20118,
    "page_id":12272128,
    "document_id":133233,
    "pub_year":1697,
    "collection_id":34
  },
  {
    "commodity_id":3731,
    "commodity_text":"beef",
    "location_id":295924,
    "location_text":"Prace",
    "location_lat":48.87704,
    "location_lon":16.20118,
    "page_id":12272128,
    "document_id":133233,
    "pub_year":1697,
    "collection_id":34
  },
  {
    "commodity_id":3802,
    "commodity_text":"eggs",
    "location_id":73309,
    "location_text":"San",
    "location_lat":32.71533,
    "location_lon":-117.15726,
    "page_id":12272130,
    "document_id":133233,
    "pub_year":1697,
    "collection_id":34
  },
  {
    "commodity_id":3802,
    "commodity_text":"eggs",
    "location_id":73309,
    "location_text":"San",
    "location_lat":32.71533,
    "location_lon":-117.15726,
    "page_id":12272130,
    "document_id":133233,
    "pub_year":1697,
    "collection_id":34
  },
  {
    "commodity_id":3616,
    "commodity_text":"food",
    "location_id":435623,
    "location_text":"Canoas",
    "location_lat":-29.91778,
    "location_lon":-51.18361,
    "page_id":12272137,
    "document_id":133233,
    "pub_year":1697,
    "collection_id":34
  },
  {
    "commodity_id":3616,
    "commodity_text":"food",
    "location_id":435623,
    "location_text":"Canoas",
    "location_lat":-29.91778,
    "location_lon":-51.18361,
    "page_id":12272137,
    "document_id":133233,
    "pub_year":1697,
    "collection_id":34
  },
  {
    "commodity_id":3702,
    "commodity_text":"herbs",
    "location_id":435623,
    "location_text":"Canoas",
    "location_lat":-29.91778,
    "location_lon":-51.18361,
    "page_id":12272137,
    "document_id":133233,
    "pub_year":1697,
    "collection_id":34
  },
  {
    "commodity_id":3697,
    "commodity_text":"animals",
    "location_id":435623,
    "location_text":"Canoas",
    "location_lat":-29.91778,
    "location_lon":-51.18361,
    "page_id":12272137,
    "document_id":133233,
    "pub_year":1697,
    "collection_id":34
  },
  {
    "commodity_id":3754,
    "commodity_text":"plants",
    "location_id":64816,
    "location_text":"China",
    "location_lat":35,
    "location_lon":105,
    "page_id":12271726,
    "document_id":133233,
    "pub_year":1697,
    "collection_id":34
  },
  {
    "commodity_id":3754,
    "commodity_text":"plants",
    "location_id":65092,
    "location_text":"Sumatra",
    "location_lat":0,
    "location_lon":102,
    "page_id":12271726,
    "document_id":133233,
    "pub_year":1697,
    "collection_id":34
  },
  {
    "commodity_id":3612,
    "commodity_text":"fruits",
    "location_id":64816,
    "location_text":"China",
    "location_lat":35,
    "location_lon":105,
    "page_id":12271726,
    "document_id":133233,
    "pub_year":1697,
    "collection_id":34
  },
  {
    "commodity_id":3612,
    "commodity_text":"fruits",
    "location_id":65092,
    "location_text":"Sumatra",
    "location_lat":0,
    "location_lon":102,
    "page_id":12271726,
    "document_id":133233,
    "pub_year":1697,
    "collection_id":34
  },
  {
    "commodity_id":3697,
    "commodity_text":"animals",
    "location_id":64816,
    "location_text":"China",
    "location_lat":35,
    "location_lon":105,
    "page_id":12271726,
    "document_id":133233,
    "pub_year":1697,
    "collection_id":34
  },
  {
    "commodity_id":3697,
    "commodity_text":"animals",
    "location_id":65092,
    "location_text":"Sumatra",
    "location_lat":0,
    "location_lon":102,
    "page_id":12271726,
    "document_id":133233,
    "pub_year":1697,
    "collection_id":34
  },
  {
    "commodity_id":3739,
    "commodity_text":"pearl",
    "location_id":66711,
    "location_text":"Mes",
    "location_lat":3.58333,
    "location_lon":98.66667,
    "page_id":12271729,
    "document_id":133233,
    "pub_year":1697,
    "collection_id":34
  },
  {
    "commodity_id":3679,
    "commodity_text":"arms",
    "location_id":297498,
    "location_text":"Canoa",
    "location_lat":19.15,
    "location_lon":-98.08333,
    "page_id":12271732,
    "document_id":133233,
    "pub_year":1697,
    "collection_id":34
  },
  {
    "commodity_id":3900,
    "commodity_text":"turtle",
    "location_id":297498,
    "location_text":"Canoa",
    "location_lat":19.15,
    "location_lon":-98.08333,
    "page_id":12271732,
    "document_id":133233,
    "pub_year":1697,
    "collection_id":34
  },
  {
    "commodity_id":3686,
    "commodity_text":"cotton",
    "location_id":114494,
    "location_text":"Clo",
    "location_lat":3.43722,
    "location_lon":-76.5225,
    "page_id":12271751,
    "document_id":133233,
    "pub_year":1697,
    "collection_id":34
  },
  {
    "commodity_id":3704,
    "commodity_text":"hair",
    "location_id":67309,
    "location_text":"La",
    "location_lat":31.00047,
    "location_lon":-92.0004,
    "page_id":12271763,
    "document_id":133233,
    "pub_year":1697,
    "collection_id":34
  },
  {
    "commodity_id":3903,
    "commodity_text":"guns",
    "location_id":64735,
    "location_text":"Cuba",
    "location_lat":22,
    "location_lon":-79.5,
    "page_id":12271764,
    "document_id":133233,
    "pub_year":1697,
    "collection_id":34
  },
  {
    "commodity_id":3679,
    "commodity_text":"arms",
    "location_id":64735,
    "location_text":"Cuba",
    "location_lat":22,
    "location_lon":-79.5,
    "page_id":12271764,
    "document_id":133233,
    "pub_year":1697,
    "collection_id":34
  },
  {
    "commodity_id":3685,
    "commodity_text":"sugar",
    "location_id":64735,
    "location_text":"Cuba",
    "location_lat":22,
    "location_lon":-79.5,
    "page_id":12271764,
    "document_id":133233,
    "pub_year":1697,
    "collection_id":34
  },
  {
    "commodity_id":3620,
    "commodity_text":"trees",
    "location_id":86356,
    "location_text":"Bul",
    "location_lat":-7.2,
    "location_lon":146.65,
    "page_id":12271774,
    "document_id":133233,
    "pub_year":1697,
    "collection_id":34
  },
  {
    "commodity_id":3708,
    "commodity_text":"sand",
    "location_id":86356,
    "location_text":"Bul",
    "location_lat":-7.2,
    "location_lon":146.65,
    "page_id":12271774,
    "document_id":133233,
    "pub_year":1697,
    "collection_id":34
  },
  {
    "commodity_id":3920,
    "commodity_text":"gum",
    "location_id":219083,
    "location_text":"Furth",
    "location_lat":49.47593,
    "location_lon":10.98856,
    "page_id":12271782,
    "document_id":133233,
    "pub_year":1697,
    "collection_id":34
  },
  {
    "commodity_id":3781,
    "commodity_text":"stone",
    "location_id":435623,
    "location_text":"Canoas",
    "location_lat":-29.91778,
    "location_lon":-51.18361,
    "page_id":12271799,
    "document_id":133233,
    "pub_year":1697,
    "collection_id":34
  },
  {
    "commodity_id":3629,
    "commodity_text":"wood",
    "location_id":435623,
    "location_text":"Canoas",
    "location_lat":-29.91778,
    "location_lon":-51.18361,
    "page_id":12271799,
    "document_id":133233,
    "pub_year":1697,
    "collection_id":34
  },
  {
    "commodity_id":3616,
    "commodity_text":"food",
    "location_id":65636,
    "location_text":"Tha",
    "location_lat":35.36202,
    "location_lon":-86.20943,
    "page_id":12271802,
    "document_id":133233,
    "pub_year":1697,
    "collection_id":34
  },
  {
    "commodity_id":3752,
    "commodity_text":"grass",
    "location_id":65636,
    "location_text":"Tha",
    "location_lat":35.36202,
    "location_lon":-86.20943,
    "page_id":12271802,
    "document_id":133233,
    "pub_year":1697,
    "collection_id":34
  },
  {
    "commodity_id":3796,
    "commodity_text":"goats",
    "location_id":65636,
    "location_text":"Tha",
    "location_lat":35.36202,
    "location_lon":-86.20943,
    "page_id":12271802,
    "document_id":133233,
    "pub_year":1697,
    "collection_id":34
  },
  {
    "commodity_id":3752,
    "commodity_text":"grass",
    "location_id":125491,
    "location_text":"Turt",
    "location_lat":47.98333,
    "location_lon":23.21667,
    "page_id":12271816,
    "document_id":133233,
    "pub_year":1697,
    "collection_id":34
  },
  {
    "commodity_id":4317,
    "commodity_text":"barnacles",
    "location_id":125491,
    "location_text":"Turt",
    "location_lat":47.98333,
    "location_lon":23.21667,
    "page_id":12271816,
    "document_id":133233,
    "pub_year":1697,
    "collection_id":34
  },
  {
    "commodity_id":3638,
    "commodity_text":"art",
    "location_id":64735,
    "location_text":"Cuba",
    "location_lat":22,
    "location_lon":-79.5,
    "page_id":12271819,
    "document_id":133233,
    "pub_year":1697,
    "collection_id":34
  },
  {
    "commodity_id":3900,
    "commodity_text":"turtle",
    "location_id":64735,
    "location_text":"Cuba",
    "location_lat":22,
    "location_lon":-79.5,
    "page_id":12271819,
    "document_id":133233,
    "pub_year":1697,
    "collection_id":34
  },
  {
    "commodity_id":4382,
    "commodity_text":"tares",
    "location_id":64735,
    "location_text":"Cuba",
    "location_lat":22,
    "location_lon":-79.5,
    "page_id":12271819,
    "document_id":133233,
    "pub_year":1697,
    "collection_id":34
  },
  {
    "commodity_id":3834,
    "commodity_text":"pictures",
    "location_id":121583,
    "location_text":"Paita",
    "location_lat":-5.08917,
    "location_lon":-81.11444,
    "page_id":12271842,
    "document_id":133233,
    "pub_year":1697,
    "collection_id":34
  },
  {
    "commodity_id":3629,
    "commodity_text":"wood",
    "location_id":88053,
    "location_text":"Id",
    "location_lat":44.5002,
    "location_lon":-114.25118,
    "page_id":12271844,
    "document_id":133233,
    "pub_year":1697,
    "collection_id":34
  },
  {
    "commodity_id":3690,
    "commodity_text":"fish",
    "location_id":404802,
    "location_text":"Sily",
    "location_lat":-30,
    "location_lon":-71,
    "page_id":12271851,
    "document_id":133233,
    "pub_year":1697,
    "collection_id":34
  },
  {
    "commodity_id":3772,
    "commodity_text":"bones",
    "location_id":404802,
    "location_text":"Sily",
    "location_lat":-30,
    "location_lon":-71,
    "page_id":12271851,
    "document_id":133233,
    "pub_year":1697,
    "collection_id":34
  },
  {
    "commodity_id":3739,
    "commodity_text":"pearl",
    "location_id":65283,
    "location_text":"Lima",
    "location_lat":-12.04318,
    "location_lon":-77.02824,
    "page_id":12271872,
    "document_id":133233,
    "pub_year":1697,
    "collection_id":34
  },
  {
    "commodity_id":3825,
    "commodity_text":"ale",
    "location_id":67082,
    "location_text":"Nata",
    "location_lat":8.33333,
    "location_lon":-80.51667,
    "page_id":12271877,
    "document_id":133233,
    "pub_year":1697,
    "collection_id":34
  },
  {
    "commodity_id":3685,
    "commodity_text":"sugar",
    "location_id":66522,
    "location_text":"Panama",
    "location_lat":9,
    "location_lon":-80,
    "page_id":12271893,
    "document_id":133233,
    "pub_year":1697,
    "collection_id":34
  },
  {
    "commodity_id":3613,
    "commodity_text":"bark",
    "location_id":72798,
    "location_text":"Ca",
    "location_lat":37.25022,
    "location_lon":-119.75126,
    "page_id":12271916,
    "document_id":133233,
    "pub_year":1697,
    "collection_id":34
  },
  {
    "commodity_id":3629,
    "commodity_text":"wood",
    "location_id":67309,
    "location_text":"La",
    "location_lat":31.00047,
    "location_lon":-92.0004,
    "page_id":12271921,
    "document_id":133233,
    "pub_year":1697,
    "collection_id":34
  },
  {
    "commodity_id":4012,
    "commodity_text":"chocolate",
    "location_id":71201,
    "location_text":"Lai",
    "location_lat":9.3952,
    "location_lon":16.2989,
    "page_id":12271926,
    "document_id":133233,
    "pub_year":1697,
    "collection_id":34
  },
  {
    "commodity_id":3903,
    "commodity_text":"guns",
    "location_id":72798,
    "location_text":"Ca",
    "location_lat":37.25022,
    "location_lon":-119.75126,
    "page_id":12271929,
    "document_id":133233,
    "pub_year":1697,
    "collection_id":34
  },
  {
    "commodity_id":3903,
    "commodity_text":"guns",
    "location_id":435623,
    "location_text":"Canoas",
    "location_lat":-29.91778,
    "location_lon":-51.18361,
    "page_id":12271929,
    "document_id":133233,
    "pub_year":1697,
    "collection_id":34
  },
  {
    "commodity_id":3894,
    "commodity_text":"pig",
    "location_id":90825,
    "location_text":"Savannah",
    "location_lat":32.08354,
    "location_lon":-81.09983,
    "page_id":12271930,
    "document_id":133233,
    "pub_year":1697,
    "collection_id":34
  },
  {
    "commodity_id":4075,
    "commodity_text":"swan",
    "location_id":435623,
    "location_text":"Canoas",
    "location_lat":-29.91778,
    "location_lon":-51.18361,
    "page_id":12271949,
    "document_id":133233,
    "pub_year":1697,
    "collection_id":34
  },
  {
    "commodity_id":3617,
    "commodity_text":"tree",
    "location_id":74655,
    "location_text":"Mak",
    "location_lat":9.53342,
    "location_lon":31.66048,
    "page_id":12271970,
    "document_id":133233,
    "pub_year":1697,
    "collection_id":34
  },
  {
    "commodity_id":3797,
    "commodity_text":"bread",
    "location_id":88760,
    "location_text":"Guam",
    "location_lat":13.481,
    "location_lon":144.732,
    "page_id":12271971,
    "document_id":133233,
    "pub_year":1697,
    "collection_id":34
  },
  {
    "commodity_id":3614,
    "commodity_text":"fruit",
    "location_id":88760,
    "location_text":"Guam",
    "location_lat":13.481,
    "location_lon":144.732,
    "page_id":12271971,
    "document_id":133233,
    "pub_year":1697,
    "collection_id":34
  },
  {
    "commodity_id":3611,
    "commodity_text":"nuts",
    "location_id":88760,
    "location_text":"Guam",
    "location_lat":13.481,
    "location_lon":144.732,
    "page_id":12271971,
    "document_id":133233,
    "pub_year":1697,
    "collection_id":34
  },
  {
    "commodity_id":3614,
    "commodity_text":"fruit",
    "location_id":72798,
    "location_text":"Ca",
    "location_lat":37.25022,
    "location_lon":-119.75126,
    "page_id":12271975,
    "document_id":133233,
    "pub_year":1697,
    "collection_id":34
  },
  {
    "commodity_id":3812,
    "commodity_text":"snake",
    "location_id":174494,
    "location_text":"Ris",
    "location_lat":48.6511,
    "location_lon":2.41406,
    "page_id":12272010,
    "document_id":133233,
    "pub_year":1697,
    "collection_id":34
  },
  {
    "commodity_id":4075,
    "commodity_text":"swan",
    "location_id":245717,
    "location_text":"Caro",
    "location_lat":47.86429,
    "location_lon":-2.31924,
    "page_id":12272014,
    "document_id":133233,
    "pub_year":1697,
    "collection_id":34
  },
  {
    "commodity_id":3691,
    "commodity_text":"ice",
    "location_id":245717,
    "location_text":"Caro",
    "location_lat":47.86429,
    "location_lon":-2.31924,
    "page_id":12272014,
    "document_id":133233,
    "pub_year":1697,
    "collection_id":34
  },
  {
    "commodity_id":4075,
    "commodity_text":"swan",
    "location_id":65369,
    "location_text":"Une",
    "location_lat":4.40306,
    "location_lon":-74.02528,
    "page_id":12272019,
    "document_id":133233,
    "pub_year":1697,
    "collection_id":34
  },
  {
    "commodity_id":3738,
    "commodity_text":"deer",
    "location_id":88053,
    "location_text":"Id",
    "location_lat":44.5002,
    "location_lon":-114.25118,
    "page_id":12272032,
    "document_id":133233,
    "pub_year":1697,
    "collection_id":34
  },
  {
    "commodity_id":3781,
    "commodity_text":"stone",
    "location_id":66905,
    "location_text":"Ume",
    "location_lat":6.38309,
    "location_lon":-5.41759,
    "page_id":12272038,
    "document_id":133233,
    "pub_year":1697,
    "collection_id":34
  },
  {
    "commodity_id":3790,
    "commodity_text":"tea",
    "location_id":64816,
    "location_text":"China",
    "location_lat":35,
    "location_lon":105,
    "page_id":12272055,
    "document_id":133233,
    "pub_year":1697,
    "collection_id":34
  },
  {
    "commodity_id":3673,
    "commodity_text":"silver",
    "location_id":64816,
    "location_text":"China",
    "location_lat":35,
    "location_lon":105,
    "page_id":12272068,
    "document_id":133233,
    "pub_year":1697,
    "collection_id":34
  },
  {
    "commodity_id":3673,
    "commodity_text":"silver",
    "location_id":72798,
    "location_text":"Ca",
    "location_lat":37.25022,
    "location_lon":-119.75126,
    "page_id":12272068,
    "document_id":133233,
    "pub_year":1697,
    "collection_id":34
  },
  {
    "commodity_id":3903,
    "commodity_text":"guns",
    "location_id":64816,
    "location_text":"China",
    "location_lat":35,
    "location_lon":105,
    "page_id":12272068,
    "document_id":133233,
    "pub_year":1697,
    "collection_id":34
  },
  {
    "commodity_id":3903,
    "commodity_text":"guns",
    "location_id":72798,
    "location_text":"Ca",
    "location_lat":37.25022,
    "location_lon":-119.75126,
    "page_id":12272068,
    "document_id":133233,
    "pub_year":1697,
    "collection_id":34
  },
  {
    "commodity_id":4023,
    "commodity_text":"goat",
    "location_id":88053,
    "location_text":"Id",
    "location_lat":44.5002,
    "location_lon":-114.25118,
    "page_id":12272080,
    "document_id":133233,
    "pub_year":1697,
    "collection_id":34
  },
  {
    "commodity_id":4075,
    "commodity_text":"swan",
    "location_id":75440,
    "location_text":"Ternate",
    "location_lat":0.8,
    "location_lon":127.4,
    "page_id":12272084,
    "document_id":133233,
    "pub_year":1697,
    "collection_id":34
  },
  {
    "commodity_id":3900,
    "commodity_text":"turtle",
    "location_id":65647,
    "location_text":"East India",
    "location_lat":20,
    "location_lon":77,
    "page_id":12272090,
    "document_id":133233,
    "pub_year":1697,
    "collection_id":34
  },
  {
    "commodity_id":3903,
    "commodity_text":"guns",
    "location_id":81450,
    "location_text":"Wi",
    "location_lat":44.50024,
    "location_lon":-90.00041,
    "page_id":12272092,
    "document_id":133233,
    "pub_year":1697,
    "collection_id":34
  },
  {
    "commodity_id":3661,
    "commodity_text":"silk",
    "location_id":101131,
    "location_text":"Ile",
    "location_lat":31.11712,
    "location_lon":-97.7278,
    "page_id":12272094,
    "document_id":133233,
    "pub_year":1697,
    "collection_id":34
  },
  {
    "commodity_id":3661,
    "commodity_text":"silk",
    "location_id":101131,
    "location_text":"Ile",
    "location_lat":31.11712,
    "location_lon":-97.7278,
    "page_id":12272094,
    "document_id":133233,
    "pub_year":1697,
    "collection_id":34
  },
  {
    "commodity_id":3669,
    "commodity_text":"rice",
    "location_id":65122,
    "location_text":"Red Sea",
    "location_lat":27.18624,
    "location_lon":33.78845,
    "page_id":12272118,
    "document_id":133233,
    "pub_year":1697,
    "collection_id":34
  },
  {
    "commodity_id":3839,
    "commodity_text":"pea",
    "location_id":378822,
    "location_text":"Barly",
    "location_lat":50.25035,
    "location_lon":2.54621,
    "page_id":12272129,
    "document_id":133233,
    "pub_year":1697,
    "collection_id":34
  },
  {
    "commodity_id":3754,
    "commodity_text":"plants",
    "location_id":118546,
    "location_text":"Formosa",
    "location_lat":-26.17753,
    "location_lon":-58.17814,
    "page_id":12271726,
    "document_id":133233,
    "pub_year":1697,
    "collection_id":34
  },
  {
    "commodity_id":3612,
    "commodity_text":"fruits",
    "location_id":118546,
    "location_text":"Formosa",
    "location_lat":-26.17753,
    "location_lon":-58.17814,
    "page_id":12271726,
    "document_id":133233,
    "pub_year":1697,
    "collection_id":34
  },
  {
    "commodity_id":3697,
    "commodity_text":"animals",
    "location_id":118546,
    "location_text":"Formosa",
    "location_lat":-26.17753,
    "location_lon":-58.17814,
    "page_id":12271726,
    "document_id":133233,
    "pub_year":1697,
    "collection_id":34
  },
  {
    "commodity_id":3739,
    "commodity_text":"pearl",
    "location_id":66522,
    "location_text":"Panama",
    "location_lat":9,
    "location_lon":-80,
    "page_id":12271729,
    "document_id":133233,
    "pub_year":1697,
    "collection_id":34
  },
  {
    "commodity_id":3629,
    "commodity_text":"wood",
    "location_id":86047,
    "location_text":"Ica",
    "location_lat":-14.06777,
    "location_lon":-75.72861,
    "page_id":12271750,
    "document_id":133233,
    "pub_year":1697,
    "collection_id":34
  },
  {
    "commodity_id":3617,
    "commodity_text":"tree",
    "location_id":188928,
    "location_text":"Cep",
    "location_lat":48.9195,
    "location_lon":14.80736,
    "page_id":12271750,
    "document_id":133233,
    "pub_year":1697,
    "collection_id":34
  },
  {
    "commodity_id":3617,
    "commodity_text":"tree",
    "location_id":297498,
    "location_text":"Canoa",
    "location_lat":19.15,
    "location_lon":-98.08333,
    "page_id":12271750,
    "document_id":133233,
    "pub_year":1697,
    "collection_id":34
  },
  {
    "commodity_id":3656,
    "commodity_text":"woods",
    "location_id":67197,
    "location_text":"Oxford",
    "location_lat":51.75222,
    "location_lon":-1.25596,
    "page_id":12271761,
    "document_id":133233,
    "pub_year":1697,
    "collection_id":34
  },
  {
    "commodity_id":3801,
    "commodity_text":"birds",
    "location_id":78013,
    "location_text":"Aves",
    "location_lat":41.37034,
    "location_lon":-8.4101,
    "page_id":12271768,
    "document_id":133233,
    "pub_year":1697,
    "collection_id":34
  },
  {
    "commodity_id":3801,
    "commodity_text":"birds",
    "location_id":78013,
    "location_text":"Aves",
    "location_lat":41.37034,
    "location_lon":-8.4101,
    "page_id":12271768,
    "document_id":133233,
    "pub_year":1697,
    "collection_id":34
  },
  {
    "commodity_id":3620,
    "commodity_text":"trees",
    "location_id":69679,
    "location_text":"Han",
    "location_lat":21.0245,
    "location_lon":105.84117,
    "page_id":12271773,
    "document_id":133233,
    "pub_year":1697,
    "collection_id":34
  },
  {
    "commodity_id":3927,
    "commodity_text":"cacao",
    "location_id":87103,
    "location_text":"Coa",
    "location_lat":27.33333,
    "location_lon":-102,
    "page_id":12271779,
    "document_id":133233,
    "pub_year":1697,
    "collection_id":34
  },
  {
    "commodity_id":3619,
    "commodity_text":"oil",
    "location_id":87103,
    "location_text":"Coa",
    "location_lat":27.33333,
    "location_lon":-102,
    "page_id":12271779,
    "document_id":133233,
    "pub_year":1697,
    "collection_id":34
  },
  {
    "commodity_id":3649,
    "commodity_text":"blood",
    "location_id":87103,
    "location_text":"Coa",
    "location_lat":27.33333,
    "location_lon":-102,
    "page_id":12271779,
    "document_id":133233,
    "pub_year":1697,
    "collection_id":34
  },
  {
    "commodity_id":3664,
    "commodity_text":"timber",
    "location_id":66711,
    "location_text":"Mes",
    "location_lat":3.58333,
    "location_lon":98.66667,
    "page_id":12271812,
    "document_id":133233,
    "pub_year":1697,
    "collection_id":34
  },
  {
    "commodity_id":3900,
    "commodity_text":"turtle",
    "location_id":72798,
    "location_text":"Ca",
    "location_lat":37.25022,
    "location_lon":-119.75126,
    "page_id":12271817,
    "document_id":133233,
    "pub_year":1697,
    "collection_id":34
  },
  {
    "commodity_id":3691,
    "commodity_text":"ice",
    "location_id":72798,
    "location_text":"Ca",
    "location_lat":37.25022,
    "location_lon":-119.75126,
    "page_id":12271829,
    "document_id":133233,
    "pub_year":1697,
    "collection_id":34
  },
  {
    "commodity_id":3620,
    "commodity_text":"trees",
    "location_id":90825,
    "location_text":"Savannah",
    "location_lat":32.08354,
    "location_lon":-81.09983,
    "page_id":12271829,
    "document_id":133233,
    "pub_year":1697,
    "collection_id":34
  },
  {
    "commodity_id":3752,
    "commodity_text":"grass",
    "location_id":90825,
    "location_text":"Savannah",
    "location_lat":32.08354,
    "location_lon":-81.09983,
    "page_id":12271829,
    "document_id":133233,
    "pub_year":1697,
    "collection_id":34
  },
  {
    "commodity_id":3629,
    "commodity_text":"wood",
    "location_id":121583,
    "location_text":"Paita",
    "location_lat":-5.08917,
    "location_lon":-81.11444,
    "page_id":12271843,
    "document_id":133233,
    "pub_year":1697,
    "collection_id":34
  },
  {
    "commodity_id":3639,
    "commodity_text":"bear",
    "location_id":74692,
    "location_text":"Roi",
    "location_lat":16.0567,
    "location_lon":103.65309,
    "page_id":12271844,
    "document_id":133233,
    "pub_year":1697,
    "collection_id":34
  },
  {
    "commodity_id":3672,
    "commodity_text":"gold",
    "location_id":1866063,
    "location_text":"Smara",
    "location_lat":26.73841,
    "location_lon":-11.67194,
    "page_id":12271855,
    "document_id":133233,
    "pub_year":1697,
    "collection_id":34
  },
  {
    "commodity_id":3613,
    "commodity_text":"bark",
    "location_id":297498,
    "location_text":"Canoa",
    "location_lat":19.15,
    "location_lon":-98.08333,
    "page_id":12271856,
    "document_id":133233,
    "pub_year":1697,
    "collection_id":34
  },
  {
    "commodity_id":3613,
    "commodity_text":"bark",
    "location_id":435623,
    "location_text":"Canoas",
    "location_lat":-29.91778,
    "location_lon":-51.18361,
    "page_id":12271856,
    "document_id":133233,
    "pub_year":1697,
    "collection_id":34
  },
  {
    "commodity_id":3656,
    "commodity_text":"woods",
    "location_id":86047,
    "location_text":"Ica",
    "location_lat":-14.06777,
    "location_lon":-75.72861,
    "page_id":12271869,
    "document_id":133233,
    "pub_year":1697,
    "collection_id":34
  },
  {
    "commodity_id":3739,
    "commodity_text":"pearl",
    "location_id":66522,
    "location_text":"Panama",
    "location_lat":9,
    "location_lon":-80,
    "page_id":12271872,
    "document_id":133233,
    "pub_year":1697,
    "collection_id":34
  },
  {
    "commodity_id":3715,
    "commodity_text":"flower",
    "location_id":66522,
    "location_text":"Panama",
    "location_lat":9,
    "location_lon":-80,
    "page_id":12271873,
    "document_id":133233,
    "pub_year":1697,
    "collection_id":34
  },
  {
    "commodity_id":3903,
    "commodity_text":"guns",
    "location_id":65165,
    "location_text":"Peru",
    "location_lat":-10,
    "location_lon":-76,
    "page_id":12271902,
    "document_id":133233,
    "pub_year":1697,
    "collection_id":34
  },
  {
    "commodity_id":3903,
    "commodity_text":"guns",
    "location_id":65165,
    "location_text":"Peru",
    "location_lat":-10,
    "location_lon":-76,
    "page_id":12271902,
    "document_id":133233,
    "pub_year":1697,
    "collection_id":34
  },
  {
    "commodity_id":3903,
    "commodity_text":"guns",
    "location_id":65165,
    "location_text":"Peru",
    "location_lat":-10,
    "location_lon":-76,
    "page_id":12271902,
    "document_id":133233,
    "pub_year":1697,
    "collection_id":34
  },
  {
    "commodity_id":3903,
    "commodity_text":"guns",
    "location_id":65165,
    "location_text":"Peru",
    "location_lat":-10,
    "location_lon":-76,
    "page_id":12271902,
    "document_id":133233,
    "pub_year":1697,
    "collection_id":34
  },
  {
    "commodity_id":3903,
    "commodity_text":"guns",
    "location_id":65165,
    "location_text":"Peru",
    "location_lat":-10,
    "location_lon":-76,
    "page_id":12271902,
    "document_id":133233,
    "pub_year":1697,
    "collection_id":34
  },
  {
    "commodity_id":3672,
    "commodity_text":"gold",
    "location_id":87103,
    "location_text":"Coa",
    "location_lat":27.33333,
    "location_lon":-102,
    "page_id":12271905,
    "document_id":133233,
    "pub_year":1697,
    "collection_id":34
  },
  {
    "commodity_id":3649,
    "commodity_text":"blood",
    "location_id":66309,
    "location_text":"Mau",
    "location_lat":25.94167,
    "location_lon":83.56111,
    "page_id":12271915,
    "document_id":133233,
    "pub_year":1697,
    "collection_id":34
  },
  {
    "commodity_id":3613,
    "commodity_text":"bark",
    "location_id":72798,
    "location_text":"Ca",
    "location_lat":37.25022,
    "location_lon":-119.75126,
    "page_id":12271916,
    "document_id":133233,
    "pub_year":1697,
    "collection_id":34
  },
  {
    "commodity_id":3886,
    "commodity_text":"dye",
    "location_id":116544,
    "location_text":"Otta",
    "location_lat":61.7712,
    "location_lon":9.53529,
    "page_id":12271918,
    "document_id":133233,
    "pub_year":1697,
    "collection_id":34
  },
  {
    "commodity_id":3714,
    "commodity_text":"books",
    "location_id":73828,
    "location_text":"Har",
    "location_lat":40.2737,
    "location_lon":-76.88442,
    "page_id":12271923,
    "document_id":133233,
    "pub_year":1697,
    "collection_id":34
  },
  {
    "commodity_id":3715,
    "commodity_text":"flower",
    "location_id":73383,
    "location_text":"Acapulco",
    "location_lat":16.86336,
    "location_lon":-99.8901,
    "page_id":12271936,
    "document_id":133233,
    "pub_year":1697,
    "collection_id":34
  },
  {
    "commodity_id":3613,
    "commodity_text":"bark",
    "location_id":435623,
    "location_text":"Canoas",
    "location_lat":-29.91778,
    "location_lon":-51.18361,
    "page_id":12271944,
    "document_id":133233,
    "pub_year":1697,
    "collection_id":34
  },
  {
    "commodity_id":3651,
    "commodity_text":"meal",
    "location_id":88760,
    "location_text":"Guam",
    "location_lat":13.481,
    "location_lon":144.732,
    "page_id":12271964,
    "document_id":133233,
    "pub_year":1697,
    "collection_id":34
  },
  {
    "commodity_id":3639,
    "commodity_text":"bear",
    "location_id":64788,
    "location_text":"America",
    "location_lat":39.76,
    "location_lon":-98.5,
    "page_id":12271980,
    "document_id":133233,
    "pub_year":1697,
    "collection_id":34
  },
  {
    "commodity_id":3639,
    "commodity_text":"bear",
    "location_id":64733,
    "location_text":"Spain",
    "location_lat":40,
    "location_lon":-4,
    "page_id":12271980,
    "document_id":133233,
    "pub_year":1697,
    "collection_id":34
  },
  {
    "commodity_id":3797,
    "commodity_text":"bread",
    "location_id":66298,
    "location_text":"Or",
    "location_lat":44.00013,
    "location_lon":-120.50139,
    "page_id":12271982,
    "document_id":133233,
    "pub_year":1697,
    "collection_id":34
  },
  {
    "commodity_id":4075,
    "commodity_text":"swan",
    "location_id":65647,
    "location_text":"East India",
    "location_lat":20,
    "location_lon":77,
    "page_id":12272033,
    "document_id":133233,
    "pub_year":1697,
    "collection_id":34
  },
  {
    "commodity_id":3826,
    "commodity_text":"cork",
    "location_id":74821,
    "location_text":"Lan",
    "location_lat":53.83333,
    "location_lon":-2.5,
    "page_id":12272051,
    "document_id":133233,
    "pub_year":1697,
    "collection_id":34
  },
  {
    "commodity_id":3968,
    "commodity_text":"china",
    "location_id":65156,
    "location_text":"Siam",
    "location_lat":15,
    "location_lon":100,
    "page_id":12272053,
    "document_id":133233,
    "pub_year":1697,
    "collection_id":34
  },
  {
    "commodity_id":3968,
    "commodity_text":"china",
    "location_id":65523,
    "location_text":"Malacca",
    "location_lat":2.196,
    "location_lon":102.2405,
    "page_id":12272053,
    "document_id":133233,
    "pub_year":1697,
    "collection_id":34
  },
  {
    "commodity_id":3656,
    "commodity_text":"woods",
    "location_id":72798,
    "location_text":"Ca",
    "location_lat":37.25022,
    "location_lon":-119.75126,
    "page_id":12272054,
    "document_id":133233,
    "pub_year":1697,
    "collection_id":34
  },
  {
    "commodity_id":3639,
    "commodity_text":"bear",
    "location_id":86612,
    "location_text":"Toi",
    "location_lat":31.80877,
    "location_lon":-85.96995,
    "page_id":12272092,
    "document_id":133233,
    "pub_year":1697,
    "collection_id":34
  },
  {
    "commodity_id":3814,
    "commodity_text":"hog",
    "location_id":99333,
    "location_text":"Thel",
    "location_lat":46.11636,
    "location_lon":4.37624,
    "page_id":12272103,
    "document_id":133233,
    "pub_year":1697,
    "collection_id":34
  },
  {
    "commodity_id":3616,
    "commodity_text":"food",
    "location_id":435623,
    "location_text":"Canoas",
    "location_lat":-29.91778,
    "location_lon":-51.18361,
    "page_id":12272112,
    "document_id":133233,
    "pub_year":1697,
    "collection_id":34
  },
  {
    "commodity_id":3714,
    "commodity_text":"books",
    "location_id":435623,
    "location_text":"Canoas",
    "location_lat":-29.91778,
    "location_lon":-51.18361,
    "page_id":12272113,
    "document_id":133233,
    "pub_year":1697,
    "collection_id":34
  },
  {
    "commodity_id":3714,
    "commodity_text":"books",
    "location_id":435623,
    "location_text":"Canoas",
    "location_lat":-29.91778,
    "location_lon":-51.18361,
    "page_id":12272113,
    "document_id":133233,
    "pub_year":1697,
    "collection_id":34
  },
  {
    "commodity_id":4032,
    "commodity_text":"tongue",
    "location_id":435623,
    "location_text":"Canoas",
    "location_lat":-29.91778,
    "location_lon":-51.18361,
    "page_id":12272120,
    "document_id":133233,
    "pub_year":1697,
    "collection_id":34
  },
  {
    "commodity_id":3738,
    "commodity_text":"deer",
    "location_id":64788,
    "location_text":"America",
    "location_lat":39.76,
    "location_lon":-98.5,
    "page_id":12272136,
    "document_id":133233,
    "pub_year":1697,
    "collection_id":34
  },
  {
    "commodity_id":3994,
    "commodity_text":"otter",
    "location_id":64788,
    "location_text":"America",
    "location_lat":39.76,
    "location_lon":-98.5,
    "page_id":12272136,
    "document_id":133233,
    "pub_year":1697,
    "collection_id":34
  },
  {
    "commodity_id":3945,
    "commodity_text":"beaver",
    "location_id":64788,
    "location_text":"America",
    "location_lat":39.76,
    "location_lon":-98.5,
    "page_id":12272136,
    "document_id":133233,
    "pub_year":1697,
    "collection_id":34
  },
  {
    "commodity_id":3654,
    "commodity_text":"ham",
    "location_id":65369,
    "location_text":"Une",
    "location_lat":4.40306,
    "location_lon":-74.02528,
    "page_id":12272144,
    "document_id":133233,
    "pub_year":1697,
    "collection_id":34
  },
  {
    "commodity_id":3685,
    "commodity_text":"sugar",
    "location_id":64742,
    "location_text":"England",
    "location_lat":52.16045,
    "location_lon":-0.70312,
    "page_id":12271730,
    "document_id":133233,
    "pub_year":1697,
    "collection_id":34
  },
  {
    "commodity_id":3848,
    "commodity_text":"hats",
    "location_id":64742,
    "location_text":"England",
    "location_lat":52.16045,
    "location_lon":-0.70312,
    "page_id":12271730,
    "document_id":133233,
    "pub_year":1697,
    "collection_id":34
  },
  {
    "commodity_id":3629,
    "commodity_text":"wood",
    "location_id":435623,
    "location_text":"Canoas",
    "location_lat":-29.91778,
    "location_lon":-51.18361,
    "page_id":12271750,
    "document_id":133233,
    "pub_year":1697,
    "collection_id":34
  },
  {
    "commodity_id":3903,
    "commodity_text":"guns",
    "location_id":876607,
    "location_text":"Rio Grande",
    "location_lat":8.41667,
    "location_lon":-80.48333,
    "page_id":12271764,
    "document_id":133233,
    "pub_year":1697,
    "collection_id":34
  },
  {
    "commodity_id":3679,
    "commodity_text":"arms",
    "location_id":876607,
    "location_text":"Rio Grande",
    "location_lat":8.41667,
    "location_lon":-80.48333,
    "page_id":12271764,
    "document_id":133233,
    "pub_year":1697,
    "collection_id":34
  },
  {
    "commodity_id":3685,
    "commodity_text":"sugar",
    "location_id":876607,
    "location_text":"Rio Grande",
    "location_lat":8.41667,
    "location_lon":-80.48333,
    "page_id":12271764,
    "document_id":133233,
    "pub_year":1697,
    "collection_id":34
  },
  {
    "commodity_id":3903,
    "commodity_text":"guns",
    "location_id":88173,
    "location_text":"Tai",
    "location_lat":15,
    "location_lon":100,
    "page_id":12271771,
    "document_id":133233,
    "pub_year":1697,
    "collection_id":34
  },
  {
    "commodity_id":4044,
    "commodity_text":"amber",
    "location_id":297498,
    "location_text":"Canoa",
    "location_lat":19.15,
    "location_lon":-98.08333,
    "page_id":12271790,
    "document_id":133233,
    "pub_year":1697,
    "collection_id":34
  },
  {
    "commodity_id":3781,
    "commodity_text":"stone",
    "location_id":297498,
    "location_text":"Canoa",
    "location_lat":19.15,
    "location_lon":-98.08333,
    "page_id":12271799,
    "document_id":133233,
    "pub_year":1697,
    "collection_id":34
  },
  {
    "commodity_id":3629,
    "commodity_text":"wood",
    "location_id":297498,
    "location_text":"Canoa",
    "location_lat":19.15,
    "location_lon":-98.08333,
    "page_id":12271799,
    "document_id":133233,
    "pub_year":1697,
    "collection_id":34
  },
  {
    "commodity_id":3656,
    "commodity_text":"woods",
    "location_id":64735,
    "location_text":"Cuba",
    "location_lat":22,
    "location_lon":-79.5,
    "page_id":12271801,
    "document_id":133233,
    "pub_year":1697,
    "collection_id":34
  },
  {
    "commodity_id":3682,
    "commodity_text":"mare",
    "location_id":132468,
    "location_text":"Zar",
    "location_lat":11.11128,
    "location_lon":7.7227,
    "page_id":12271808,
    "document_id":133233,
    "pub_year":1697,
    "collection_id":34
  },
  {
    "commodity_id":3682,
    "commodity_text":"mare",
    "location_id":132468,
    "location_text":"Zar",
    "location_lat":11.11128,
    "location_lon":7.7227,
    "page_id":12271808,
    "document_id":133233,
    "pub_year":1697,
    "collection_id":34
  },
  {
    "commodity_id":3900,
    "commodity_text":"turtle",
    "location_id":64734,
    "location_text":"Mexico",
    "location_lat":23,
    "location_lon":-102,
    "page_id":12271819,
    "document_id":133233,
    "pub_year":1697,
    "collection_id":34
  },
  {
    "commodity_id":3715,
    "commodity_text":"flower",
    "location_id":1866010,
    "location_text":"Lexa",
    "location_lat":34.59788,
    "location_lon":-90.75233,
    "page_id":12271822,
    "document_id":133233,
    "pub_year":1697,
    "collection_id":34
  },
  {
    "commodity_id":3927,
    "commodity_text":"cacao",
    "location_id":64836,
    "location_text":"Fri",
    "location_lat":35.41667,
    "location_lon":26.93333,
    "page_id":12271832,
    "document_id":133233,
    "pub_year":1697,
    "collection_id":34
  },
  {
    "commodity_id":3796,
    "commodity_text":"goats",
    "location_id":498633,
    "location_text":"Manta",
    "location_lat":-0.96212,
    "location_lon":-80.71271,
    "page_id":12271839,
    "document_id":133233,
    "pub_year":1697,
    "collection_id":34
  },
  {
    "commodity_id":4075,
    "commodity_text":"swan",
    "location_id":1866059,
    "location_text":"Phiti",
    "location_lat":34.92917,
    "location_lon":32.55,
    "page_id":12271839,
    "document_id":133233,
    "pub_year":1697,
    "collection_id":34
  },
  {
    "commodity_id":3834,
    "commodity_text":"pictures",
    "location_id":64733,
    "location_text":"Spain",
    "location_lat":40,
    "location_lon":-4,
    "page_id":12271842,
    "document_id":133233,
    "pub_year":1697,
    "collection_id":34
  },
  {
    "commodity_id":3672,
    "commodity_text":"gold",
    "location_id":143072,
    "location_text":"Mn",
    "location_lat":46.25024,
    "location_lon":-94.25055,
    "page_id":12271872,
    "document_id":133233,
    "pub_year":1697,
    "collection_id":34
  },
  {
    "commodity_id":3672,
    "commodity_text":"gold",
    "location_id":68426,
    "location_text":"Yan",
    "location_lat":0.81021,
    "location_lon":24.43359,
    "page_id":12271872,
    "document_id":133233,
    "pub_year":1697,
    "collection_id":34
  },
  {
    "commodity_id":3672,
    "commodity_text":"gold",
    "location_id":143072,
    "location_text":"Mn",
    "location_lat":46.25024,
    "location_lon":-94.25055,
    "page_id":12271872,
    "document_id":133233,
    "pub_year":1697,
    "collection_id":34
  },
  {
    "commodity_id":3672,
    "commodity_text":"gold",
    "location_id":68426,
    "location_text":"Yan",
    "location_lat":0.81021,
    "location_lon":24.43359,
    "page_id":12271872,
    "document_id":133233,
    "pub_year":1697,
    "collection_id":34
  },
  {
    "commodity_id":3691,
    "commodity_text":"ice",
    "location_id":65283,
    "location_text":"Lima",
    "location_lat":-12.04318,
    "location_lon":-77.02824,
    "page_id":12271881,
    "document_id":133233,
    "pub_year":1697,
    "collection_id":34
  },
  {
    "commodity_id":3691,
    "commodity_text":"ice",
    "location_id":64734,
    "location_text":"Mexico",
    "location_lat":23,
    "location_lon":-102,
    "page_id":12271881,
    "document_id":133233,
    "pub_year":1697,
    "collection_id":34
  },
  {
    "commodity_id":3613,
    "commodity_text":"bark",
    "location_id":435623,
    "location_text":"Canoas",
    "location_lat":-29.91778,
    "location_lon":-51.18361,
    "page_id":12271903,
    "document_id":133233,
    "pub_year":1697,
    "collection_id":34
  },
  {
    "commodity_id":3613,
    "commodity_text":"bark",
    "location_id":64734,
    "location_text":"Mexico",
    "location_lat":23,
    "location_lon":-102,
    "page_id":12271905,
    "document_id":133233,
    "pub_year":1697,
    "collection_id":34
  },
  {
    "commodity_id":4075,
    "commodity_text":"swan",
    "location_id":64734,
    "location_text":"Mexico",
    "location_lat":23,
    "location_lon":-102,
    "page_id":12271905,
    "document_id":133233,
    "pub_year":1697,
    "collection_id":34
  },
  {
    "commodity_id":3815,
    "commodity_text":"shrub",
    "location_id":79560,
    "location_text":"Mi",
    "location_lat":44.25029,
    "location_lon":-85.50033,
    "page_id":12271914,
    "document_id":133233,
    "pub_year":1697,
    "collection_id":34
  },
  {
    "commodity_id":3815,
    "commodity_text":"shrub",
    "location_id":88053,
    "location_text":"Id",
    "location_lat":44.5002,
    "location_lon":-114.25118,
    "page_id":12271914,
    "document_id":133233,
    "pub_year":1697,
    "collection_id":34
  },
  {
    "commodity_id":3715,
    "commodity_text":"flower",
    "location_id":72798,
    "location_text":"Ca",
    "location_lat":37.25022,
    "location_lon":-119.75126,
    "page_id":12271937,
    "document_id":133233,
    "pub_year":1697,
    "collection_id":34
  },
  {
    "commodity_id":3946,
    "commodity_text":"oaks",
    "location_id":68875,
    "location_text":"Arica",
    "location_lat":-18.4746,
    "location_lon":-70.29792,
    "page_id":12271938,
    "document_id":133233,
    "pub_year":1697,
    "collection_id":34
  },
  {
    "commodity_id":3781,
    "commodity_text":"stone",
    "location_id":64734,
    "location_text":"Mexico",
    "location_lat":23,
    "location_lon":-102,
    "page_id":12271942,
    "document_id":133233,
    "pub_year":1697,
    "collection_id":34
  },
  {
    "commodity_id":3678,
    "commodity_text":"cod",
    "location_id":64734,
    "location_text":"Mexico",
    "location_lat":23,
    "location_lon":-102,
    "page_id":12271942,
    "document_id":133233,
    "pub_year":1697,
    "collection_id":34
  },
  {
    "commodity_id":3613,
    "commodity_text":"bark",
    "location_id":297498,
    "location_text":"Canoa",
    "location_lat":19.15,
    "location_lon":-98.08333,
    "page_id":12271951,
    "document_id":133233,
    "pub_year":1697,
    "collection_id":34
  },
  {
    "commodity_id":3903,
    "commodity_text":"guns",
    "location_id":88760,
    "location_text":"Guam",
    "location_lat":13.481,
    "location_lon":144.732,
    "page_id":12271965,
    "document_id":133233,
    "pub_year":1697,
    "collection_id":34
  },
  {
    "commodity_id":3617,
    "commodity_text":"tree",
    "location_id":113796,
    "location_text":"Ist",
    "location_lat":41.01384,
    "location_lon":28.94966,
    "page_id":12271968,
    "document_id":133233,
    "pub_year":1697,
    "collection_id":34
  },
  {
    "commodity_id":3880,
    "commodity_text":"shot",
    "location_id":297498,
    "location_text":"Canoa",
    "location_lat":19.15,
    "location_lon":-98.08333,
    "page_id":12271975,
    "document_id":133233,
    "pub_year":1697,
    "collection_id":34
  },
  {
    "commodity_id":3679,
    "commodity_text":"arms",
    "location_id":297498,
    "location_text":"Canoa",
    "location_lat":19.15,
    "location_lon":-98.08333,
    "page_id":12271975,
    "document_id":133233,
    "pub_year":1697,
    "collection_id":34
  },
  {
    "commodity_id":3833,
    "commodity_text":"dog",
    "location_id":88163,
    "location_text":"Ung",
    "location_lat":-6.12193,
    "location_lon":141.29061,
    "page_id":12271979,
    "document_id":133233,
    "pub_year":1697,
    "collection_id":34
  },
  {
    "commodity_id":3614,
    "commodity_text":"fruit",
    "location_id":70423,
    "location_text":"Vic",
    "location_lat":-37,
    "location_lon":145,
    "page_id":12271993,
    "document_id":133233,
    "pub_year":1697,
    "collection_id":34
  },
  {
    "commodity_id":3679,
    "commodity_text":"arms",
    "location_id":84789,
    "location_text":"Ene",
    "location_lat":-8.8432,
    "location_lon":121.6623,
    "page_id":12272004,
    "document_id":133233,
    "pub_year":1697,
    "collection_id":34
  },
  {
    "commodity_id":3752,
    "commodity_text":"grass",
    "location_id":90825,
    "location_text":"Savannah",
    "location_lat":32.08354,
    "location_lon":-81.09983,
    "page_id":12272011,
    "document_id":133233,
    "pub_year":1697,
    "collection_id":34
  },
  {
    "commodity_id":3738,
    "commodity_text":"deer",
    "location_id":90825,
    "location_text":"Savannah",
    "location_lat":32.08354,
    "location_lon":-81.09983,
    "page_id":12272011,
    "document_id":133233,
    "pub_year":1697,
    "collection_id":34
  },
  {
    "commodity_id":4075,
    "commodity_text":"swan",
    "location_id":64737,
    "location_text":"India",
    "location_lat":20,
    "location_lon":77,
    "page_id":12272019,
    "document_id":133233,
    "pub_year":1697,
    "collection_id":34
  },
  {
    "commodity_id":3900,
    "commodity_text":"turtle",
    "location_id":96868,
    "location_text":"Panay",
    "location_lat":11.53056,
    "location_lon":122.81722,
    "page_id":12272036,
    "document_id":133233,
    "pub_year":1697,
    "collection_id":34
  },
  {
    "commodity_id":3636,
    "commodity_text":"cattle",
    "location_id":123428,
    "location_text":"Carde",
    "location_lat":44.74444,
    "location_lon":7.47762,
    "page_id":12272043,
    "document_id":133233,
    "pub_year":1697,
    "collection_id":34
  },
  {
    "commodity_id":3620,
    "commodity_text":"trees",
    "location_id":65010,
    "location_text":"Lis",
    "location_lat":38.71667,
    "location_lon":-9.13333,
    "page_id":12272057,
    "document_id":133233,
    "pub_year":1697,
    "collection_id":34
  },
  {
    "commodity_id":3620,
    "commodity_text":"trees",
    "location_id":64816,
    "location_text":"China",
    "location_lat":35,
    "location_lon":105,
    "page_id":12272057,
    "document_id":133233,
    "pub_year":1697,
    "collection_id":34
  },
  {
    "commodity_id":3669,
    "commodity_text":"rice",
    "location_id":65010,
    "location_text":"Lis",
    "location_lat":38.71667,
    "location_lon":-9.13333,
    "page_id":12272057,
    "document_id":133233,
    "pub_year":1697,
    "collection_id":34
  },
  {
    "commodity_id":3669,
    "commodity_text":"rice",
    "location_id":64816,
    "location_text":"China",
    "location_lat":35,
    "location_lon":105,
    "page_id":12272057,
    "document_id":133233,
    "pub_year":1697,
    "collection_id":34
  },
  {
    "commodity_id":3636,
    "commodity_text":"cattle",
    "location_id":65010,
    "location_text":"Lis",
    "location_lat":38.71667,
    "location_lon":-9.13333,
    "page_id":12272057,
    "document_id":133233,
    "pub_year":1697,
    "collection_id":34
  },
  {
    "commodity_id":3636,
    "commodity_text":"cattle",
    "location_id":64816,
    "location_text":"China",
    "location_lat":35,
    "location_lon":105,
    "page_id":12272057,
    "document_id":133233,
    "pub_year":1697,
    "collection_id":34
  },
  {
    "commodity_id":3796,
    "commodity_text":"goats",
    "location_id":65010,
    "location_text":"Lis",
    "location_lat":38.71667,
    "location_lon":-9.13333,
    "page_id":12272057,
    "document_id":133233,
    "pub_year":1697,
    "collection_id":34
  },
  {
    "commodity_id":3796,
    "commodity_text":"goats",
    "location_id":64816,
    "location_text":"China",
    "location_lat":35,
    "location_lon":105,
    "page_id":12272057,
    "document_id":133233,
    "pub_year":1697,
    "collection_id":34
  },
  {
    "commodity_id":3638,
    "commodity_text":"art",
    "location_id":65156,
    "location_text":"Siam",
    "location_lat":15,
    "location_lon":100,
    "page_id":12272070,
    "document_id":133233,
    "pub_year":1697,
    "collection_id":34
  },
  {
    "commodity_id":4075,
    "commodity_text":"swan",
    "location_id":72798,
    "location_text":"Ca",
    "location_lat":37.25022,
    "location_lon":-119.75126,
    "page_id":12272087,
    "document_id":133233,
    "pub_year":1697,
    "collection_id":34
  },
  {
    "commodity_id":3616,
    "commodity_text":"food",
    "location_id":88760,
    "location_text":"Guam",
    "location_lat":13.481,
    "location_lon":144.732,
    "page_id":12272112,
    "document_id":133233,
    "pub_year":1697,
    "collection_id":34
  },
  {
    "commodity_id":3714,
    "commodity_text":"books",
    "location_id":297498,
    "location_text":"Canoa",
    "location_lat":19.15,
    "location_lon":-98.08333,
    "page_id":12272113,
    "document_id":133233,
    "pub_year":1697,
    "collection_id":34
  },
  {
    "commodity_id":3714,
    "commodity_text":"books",
    "location_id":297498,
    "location_text":"Canoa",
    "location_lat":19.15,
    "location_lon":-98.08333,
    "page_id":12272113,
    "document_id":133233,
    "pub_year":1697,
    "collection_id":34
  },
  {
    "commodity_id":3720,
    "commodity_text":"corn",
    "location_id":64765,
    "location_text":"France",
    "location_lat":46,
    "location_lon":2,
    "page_id":14519042,
    "document_id":187924,
    "pub_year":1698,
    "collection_id":40
  },
  {
    "commodity_id":3672,
    "commodity_text":"gold",
    "location_id":64765,
    "location_text":"France",
    "location_lat":46,
    "location_lon":2,
    "page_id":14519048,
    "document_id":187924,
    "pub_year":1698,
    "collection_id":40
  },
  {
    "commodity_id":4032,
    "commodity_text":"tongue",
    "location_id":64765,
    "location_text":"France",
    "location_lat":46,
    "location_lon":2,
    "page_id":14519057,
    "document_id":187924,
    "pub_year":1698,
    "collection_id":40
  },
  {
    "commodity_id":3679,
    "commodity_text":"arms",
    "location_id":77501,
    "location_text":"Pers",
    "location_lat":46.10625,
    "location_lon":6.26749,
    "page_id":14519073,
    "document_id":187924,
    "pub_year":1698,
    "collection_id":40
  },
  {
    "commodity_id":3720,
    "commodity_text":"corn",
    "location_id":64765,
    "location_text":"France",
    "location_lat":46,
    "location_lon":2,
    "page_id":14519077,
    "document_id":187924,
    "pub_year":1698,
    "collection_id":40
  },
  {
    "commodity_id":3855,
    "commodity_text":"seal",
    "location_id":64742,
    "location_text":"England",
    "location_lat":52.16045,
    "location_lon":-0.70312,
    "page_id":14519078,
    "document_id":187924,
    "pub_year":1698,
    "collection_id":40
  },
  {
    "commodity_id":3679,
    "commodity_text":"arms",
    "location_id":84165,
    "location_text":"Catalonia",
    "location_lat":41.82046,
    "location_lon":1.86768,
    "page_id":14519082,
    "document_id":187924,
    "pub_year":1698,
    "collection_id":40
  },
  {
    "commodity_id":3679,
    "commodity_text":"arms",
    "location_id":64733,
    "location_text":"Spain",
    "location_lat":40,
    "location_lon":-4,
    "page_id":14519082,
    "document_id":187924,
    "pub_year":1698,
    "collection_id":40
  },
  {
    "commodity_id":3708,
    "commodity_text":"sand",
    "location_id":67309,
    "location_text":"La",
    "location_lat":31.00047,
    "location_lon":-92.0004,
    "page_id":14519085,
    "document_id":187924,
    "pub_year":1698,
    "collection_id":40
  },